ident,name,point_type,region,lat,lon,provider,effective_date,source_url,source_page
ABAGU,ABAGU,SIGNIFICANT_POINT,IRELAND / EISN FIR,52.5033333333,-7.6466666667,AIRNAV IRELAND,2026-06-11,https://www.airnav.ie/AIRAC_MAY_2026/2026-05-14-AIRAC/html/eAIP/EI-ENR-4.4-en-IE.html,
ADARA,ADARA,SIGNIFICANT_POINT,IRELAND / EISN FIR,51.5000000000,-15.0000000000,AIRNAV IRELAND,2026-06-11,https://www.airnav.ie/AIRAC_MAY_2026/2026-05-14-AIRAC/html/eAIP/EI-ENR-4.4-en-IE.html,
ADBUS,ADBUS,SIGNIFICANT_POINT,IRELAND / EISN FIR,54.4166666667,-12.5000000000,AIRNAV IRELAND,2026-06-11,https://www.airnav.ie/AIRAC_MAY_2026/2026-05-14-AIRAC/html/eAIP/EI-ENR-4.4-en-IE.html,
ADMUP,ADMUP,SIGNIFICANT_POINT,IRELAND / EISN FIR,52.8000000000,-6.2333333333,AIRNAV IRELAND,2026-06-11,https://www.airnav.ie/AIRAC_MAY_2026/2026-05-14-AIRAC/html/eAIP/EI-ENR-4.4-en-IE.html,
AGINI,AGINI,SIGNIFICANT_POINT,IRELAND / EISN FIR,53.1555555556,-8.5794444444,AIRNAV IRELAND,2026-06-11,https://www.airnav.ie/AIRAC_MAY_2026/2026-05-14-AIRAC/html/eAIP/EI-ENR-4.4-en-IE.html,
AGORI,AGORI,SIGNIFICANT_POINT,IRELAND / EISN FIR,57.0000000000,-13.0000000000,AIRNAV IRELAND,2026-06-11,https://www.airnav.ie/AIRAC_MAY_2026/2026-05-14-AIRAC/html/eAIP/EI-ENR-4.4-en-IE.html,
AKIGO,AKIGO,SIGNIFICANT_POINT,IRELAND / EISN FIR,53.8416666667,-7.9347222222,AIRNAV IRELAND,2026-06-11,https://www.airnav.ie/AIRAC_MAY_2026/2026-05-14-AIRAC/html/eAIP/EI-ENR-4.4-en-IE.html,
AMDEP,AMDEP,SIGNIFICANT_POINT,IRELAND / EISN FIR,51.5666666667,-11.2166666667,AIRNAV IRELAND,2026-06-11,https://www.airnav.ie/AIRAC_MAY_2026/2026-05-14-AIRAC/html/eAIP/EI-ENR-4.4-en-IE.html,
AMLAD,AMLAD,SIGNIFICANT_POINT,IRELAND / EISN FIR,56.2644444444,-10.0000000000,AIRNAV IRELAND,2026-06-11,https://www.airnav.ie/AIRAC_MAY_2026/2026-05-14-AIRAC/html/eAIP/EI-ENR-4.4-en-IE.html,
APSOV,APSOV,SIGNIFICANT_POINT,IRELAND / EISN FIR,55.8230555556,-10.0000000000,AIRNAV IRELAND,2026-06-11,https://www.airnav.ie/AIRAC_MAY_2026/2026-05-14-AIRAC/html/eAIP/EI-ENR-4.4-en-IE.html,
ARKIL,ARKIL,SIGNIFICANT_POINT,IRELAND / EISN FIR,50.6577777778,-8.0000000000,AIRNAV IRELAND,2026-06-11,https://www.airnav.ie/AIRAC_MAY_2026/2026-05-14-AIRAC/html/eAIP/EI-ENR-4.4-en-IE.html,
ASKUP,ASKUP,SIGNIFICANT_POINT,IRELAND / EISN FIR,53.8925000000,-6.1088888889,AIRNAV IRELAND,2026-06-11,https://www.airnav.ie/AIRAC_MAY_2026/2026-05-14-AIRAC/html/eAIP/EI-ENR-4.4-en-IE.html,
ATSUR,ATSUR,SIGNIFICANT_POINT,IRELAND / EISN FIR,50.0000000000,-14.0000000000,AIRNAV IRELAND,2026-06-11,https://www.airnav.ie/AIRAC_MAY_2026/2026-05-14-AIRAC/html/eAIP/EI-ENR-4.4-en-IE.html,
BAGSO,BAGSO,SIGNIFICANT_POINT,IRELAND / EISN FIR,53.6800000000,-5.5000000000,AIRNAV IRELAND,2026-06-11,https://www.airnav.ie/AIRAC_MAY_2026/2026-05-14-AIRAC/html/eAIP/EI-ENR-4.4-en-IE.html,
BAKUR,BAKUR,SIGNIFICANT_POINT,IRELAND / EISN FIR,52.2416666667,-5.6802777778,AIRNAV IRELAND,2026-06-11,https://www.airnav.ie/AIRAC_MAY_2026/2026-05-14-AIRAC/html/eAIP/EI-ENR-4.4-en-IE.html,
BAMLI,BAMLI,SIGNIFICANT_POINT,IRELAND / EISN FIR,54.1413888889,-6.6511111111,AIRNAV IRELAND,2026-06-11,https://www.airnav.ie/AIRAC_MAY_2026/2026-05-14-AIRAC/html/eAIP/EI-ENR-4.4-en-IE.html,
BANBA,BANBA,SIGNIFICANT_POINT,IRELAND / EISN FIR,51.9527777778,-6.2391666667,AIRNAV IRELAND,2026-06-11,https://www.airnav.ie/AIRAC_MAY_2026/2026-05-14-AIRAC/html/eAIP/EI-ENR-4.4-en-IE.html,
BEDRA,BEDRA,SIGNIFICANT_POINT,IRELAND / EISN FIR,49.0000000000,-15.0000000000,AIRNAV IRELAND,2026-06-11,https://www.airnav.ie/AIRAC_MAY_2026/2026-05-14-AIRAC/html/eAIP/EI-ENR-4.4-en-IE.html,
BEGID,BEGID,SIGNIFICANT_POINT,IRELAND / EISN FIR,56.5000000000,-14.0000000000,AIRNAV IRELAND,2026-06-11,https://www.airnav.ie/AIRAC_MAY_2026/2026-05-14-AIRAC/html/eAIP/EI-ENR-4.4-en-IE.html,
BEPAN,BEPAN,SIGNIFICANT_POINT,IRELAND / EISN FIR,52.5266666667,-6.2636111111,AIRNAV IRELAND,2026-06-11,https://www.airnav.ie/AIRAC_MAY_2026/2026-05-14-AIRAC/html/eAIP/EI-ENR-4.4-en-IE.html,
BEXET,BEXET,SIGNIFICANT_POINT,IRELAND / EISN FIR,54.0000000000,-14.0000000000,AIRNAV IRELAND,2026-06-11,https://www.airnav.ie/AIRAC_MAY_2026/2026-05-14-AIRAC/html/eAIP/EI-ENR-4.4-en-IE.html,
BIBLA,BIBLA,SIGNIFICANT_POINT,IRELAND / EISN FIR,51.1358333333,-8.9100000000,AIRNAV IRELAND,2026-06-11,https://www.airnav.ie/AIRAC_MAY_2026/2026-05-14-AIRAC/html/eAIP/EI-ENR-4.4-en-IE.html,
BILTO,BILTO,SIGNIFICANT_POINT,IRELAND / EISN FIR,56.5000000000,-15.0000000000,AIRNAV IRELAND,2026-06-11,https://www.airnav.ie/AIRAC_MAY_2026/2026-05-14-AIRAC/html/eAIP/EI-ENR-4.4-en-IE.html,
BIMGO,BIMGO,SIGNIFICANT_POINT,IRELAND / EISN FIR,49.5000000000,-14.0000000000,AIRNAV IRELAND,2026-06-11,https://www.airnav.ie/AIRAC_MAY_2026/2026-05-14-AIRAC/html/eAIP/EI-ENR-4.4-en-IE.html,
BOFUM,BOFUM,SIGNIFICANT_POINT,IRELAND / EISN FIR,53.5372222222,-5.5000000000,AIRNAV IRELAND,2026-06-11,https://www.airnav.ie/AIRAC_MAY_2026/2026-05-14-AIRAC/html/eAIP/EI-ENR-4.4-en-IE.html,
BOYNE,BOYNE,SIGNIFICANT_POINT,IRELAND / EISN FIR,53.7672222222,-5.5000000000,AIRNAV IRELAND,2026-06-11,https://www.airnav.ie/AIRAC_MAY_2026/2026-05-14-AIRAC/html/eAIP/EI-ENR-4.4-en-IE.html,
BUNED,BUNED,SIGNIFICANT_POINT,IRELAND / EISN FIR,52.6227777778,-6.6300000000,AIRNAV IRELAND,2026-06-11,https://www.airnav.ie/AIRAC_MAY_2026/2026-05-14-AIRAC/html/eAIP/EI-ENR-4.4-en-IE.html,
BUNON,BUNON,SIGNIFICANT_POINT,IRELAND / EISN FIR,52.3750000000,-9.5436111111,AIRNAV IRELAND,2026-06-11,https://www.airnav.ie/AIRAC_MAY_2026/2026-05-14-AIRAC/html/eAIP/EI-ENR-4.4-en-IE.html,
DEGOS,DEGOS,SIGNIFICANT_POINT,IRELAND / EISN FIR,54.1891666667,-6.9063888889,AIRNAV IRELAND,2026-06-11,https://www.airnav.ie/AIRAC_MAY_2026/2026-05-14-AIRAC/html/eAIP/EI-ENR-4.4-en-IE.html,
DEVOL,DEVOL,SIGNIFICANT_POINT,IRELAND / EISN FIR,53.8902777778,-10.4341666667,AIRNAV IRELAND,2026-06-11,https://www.airnav.ie/AIRAC_MAY_2026/2026-05-14-AIRAC/html/eAIP/EI-ENR-4.4-en-IE.html,
DEXEN,DEXEN,SIGNIFICANT_POINT,IRELAND / EISN FIR,53.2802777778,-5.5000000000,AIRNAV IRELAND,2026-06-11,https://www.airnav.ie/AIRAC_MAY_2026/2026-05-14-AIRAC/html/eAIP/EI-ENR-4.4-en-IE.html,
DIGAN,DIGAN,SIGNIFICANT_POINT,IRELAND / EISN FIR,52.9369444444,-8.1975000000,AIRNAV IRELAND,2026-06-11,https://www.airnav.ie/AIRAC_MAY_2026/2026-05-14-AIRAC/html/eAIP/EI-ENR-4.4-en-IE.html,
DIMUS,DIMUS,SIGNIFICANT_POINT,IRELAND / EISN FIR,52.2397222222,-6.2513888889,AIRNAV IRELAND,2026-06-11,https://www.airnav.ie/AIRAC_MAY_2026/2026-05-14-AIRAC/html/eAIP/EI-ENR-4.4-en-IE.html,
DINIM,DINIM,SIGNIFICANT_POINT,IRELAND / EISN FIR,51.0000000000,-15.0000000000,AIRNAV IRELAND,2026-06-11,https://www.airnav.ie/AIRAC_MAY_2026/2026-05-14-AIRAC/html/eAIP/EI-ENR-4.4-en-IE.html,
DIRUM,DIRUM,SIGNIFICANT_POINT,IRELAND / EISN FIR,53.0027777778,-6.6611111111,AIRNAV IRELAND,2026-06-11,https://www.airnav.ie/AIRAC_MAY_2026/2026-05-14-AIRAC/html/eAIP/EI-ENR-4.4-en-IE.html,
DOGAL,DOGAL,SIGNIFICANT_POINT,IRELAND / EISN FIR,54.0000000000,-15.0000000000,AIRNAV IRELAND,2026-06-11,https://www.airnav.ie/AIRAC_MAY_2026/2026-05-14-AIRAC/html/eAIP/EI-ENR-4.4-en-IE.html,
DOLIP,DOLIP,SIGNIFICANT_POINT,IRELAND / EISN FIR,52.0000000000,-12.0000000000,AIRNAV IRELAND,2026-06-11,https://www.airnav.ie/AIRAC_MAY_2026/2026-05-14-AIRAC/html/eAIP/EI-ENR-4.4-en-IE.html,
ELBOB,ELBOB,SIGNIFICANT_POINT,IRELAND / EISN FIR,54.7327777778,-7.7438888889,AIRNAV IRELAND,2026-06-11,https://www.airnav.ie/AIRAC_MAY_2026/2026-05-14-AIRAC/html/eAIP/EI-ENR-4.4-en-IE.html,
ELSOX,ELSOX,SIGNIFICANT_POINT,IRELAND / EISN FIR,51.0000000000,-14.0000000000,AIRNAV IRELAND,2026-06-11,https://www.airnav.ie/AIRAC_MAY_2026/2026-05-14-AIRAC/html/eAIP/EI-ENR-4.4-en-IE.html,
ELTIG,ELTIG,SIGNIFICANT_POINT,IRELAND / EISN FIR,51.7536111111,-7.8350000000,AIRNAV IRELAND,2026-06-11,https://www.airnav.ie/AIRAC_MAY_2026/2026-05-14-AIRAC/html/eAIP/EI-ENR-4.4-en-IE.html,
EMPER,EMPER,SIGNIFICANT_POINT,IRELAND / EISN FIR,49.0000000000,-9.0000000000,AIRNAV IRELAND,2026-06-11,https://www.airnav.ie/AIRAC_MAY_2026/2026-05-14-AIRAC/html/eAIP/EI-ENR-4.4-en-IE.html,
ENDEQ,ENDEQ,SIGNIFICANT_POINT,IRELAND / EISN FIR,53.4455555556,-5.5000000000,AIRNAV IRELAND,2026-06-11,https://www.airnav.ie/AIRAC_MAY_2026/2026-05-14-AIRAC/html/eAIP/EI-ENR-4.4-en-IE.html,
ENJEX,ENJEX,SIGNIFICANT_POINT,IRELAND / EISN FIR,52.0558503611,-6.0410496944,AIRNAV IRELAND,2026-06-11,https://www.airnav.ie/AIRAC_MAY_2026/2026-05-14-AIRAC/html/eAIP/EI-ENR-4.4-en-IE.html,
ENOKU,ENOKU,SIGNIFICANT_POINT,IRELAND / EISN FIR,53.1011111111,-7.6608333333,AIRNAV IRELAND,2026-06-11,https://www.airnav.ie/AIRAC_MAY_2026/2026-05-14-AIRAC/html/eAIP/EI-ENR-4.4-en-IE.html,
ENULA,ENULA,SIGNIFICANT_POINT,IRELAND / EISN FIR,53.9725000000,-8.2644444444,AIRNAV IRELAND,2026-06-11,https://www.airnav.ie/AIRAC_MAY_2026/2026-05-14-AIRAC/html/eAIP/EI-ENR-4.4-en-IE.html,
EPUNA,EPUNA,SIGNIFICANT_POINT,IRELAND / EISN FIR,50.5000000000,-14.0000000000,AIRNAV IRELAND,2026-06-11,https://www.airnav.ie/AIRAC_MAY_2026/2026-05-14-AIRAC/html/eAIP/EI-ENR-4.4-en-IE.html,
ERABI,ERABI,SIGNIFICANT_POINT,IRELAND / EISN FIR,53.0150000000,-9.5675000000,AIRNAV IRELAND,2026-06-11,https://www.airnav.ie/AIRAC_MAY_2026/2026-05-14-AIRAC/html/eAIP/EI-ENR-4.4-en-IE.html,
ERNAN,ERNAN,SIGNIFICANT_POINT,IRELAND / EISN FIR,54.2788888889,-7.3927777778,AIRNAV IRELAND,2026-06-11,https://www.airnav.ie/AIRAC_MAY_2026/2026-05-14-AIRAC/html/eAIP/EI-ENR-4.4-en-IE.html,
ERTER,ERTER,SIGNIFICANT_POINT,IRELAND / EISN FIR,51.5619444444,-8.0602777778,AIRNAV IRELAND,2026-06-11,https://www.airnav.ie/AIRAC_MAY_2026/2026-05-14-AIRAC/html/eAIP/EI-ENR-4.4-en-IE.html,
ETARI,ETARI,SIGNIFICANT_POINT,IRELAND / EISN FIR,55.5000000000,-15.0000000000,AIRNAV IRELAND,2026-06-11,https://www.airnav.ie/AIRAC_MAY_2026/2026-05-14-AIRAC/html/eAIP/EI-ENR-4.4-en-IE.html,
EVBAK,EVBAK,SIGNIFICANT_POINT,IRELAND / EISN FIR,49.0000000000,-10.0000000000,AIRNAV IRELAND,2026-06-11,https://www.airnav.ie/AIRAC_MAY_2026/2026-05-14-AIRAC/html/eAIP/EI-ENR-4.4-en-IE.html,
EVRIN,EVRIN,SIGNIFICANT_POINT,IRELAND / EISN FIR,51.7822222222,-6.5633333333,AIRNAV IRELAND,2026-06-11,https://www.airnav.ie/AIRAC_MAY_2026/2026-05-14-AIRAC/html/eAIP/EI-ENR-4.4-en-IE.html,
GAPLI,GAPLI,SIGNIFICANT_POINT,IRELAND / EISN FIR,50.0000000000,-8.0000000000,AIRNAV IRELAND,2026-06-11,https://www.airnav.ie/AIRAC_MAY_2026/2026-05-14-AIRAC/html/eAIP/EI-ENR-4.4-en-IE.html,
GELPO,GELPO,SIGNIFICANT_POINT,IRELAND / EISN FIR,48.6441666667,-9.5025000000,AIRNAV IRELAND,2026-06-11,https://www.airnav.ie/AIRAC_MAY_2026/2026-05-14-AIRAC/html/eAIP/EI-ENR-4.4-en-IE.html,
GERVO,GERVO,SIGNIFICANT_POINT,IRELAND / EISN FIR,53.0913888889,-6.5066666667,AIRNAV IRELAND,2026-06-11,https://www.airnav.ie/AIRAC_MAY_2026/2026-05-14-AIRAC/html/eAIP/EI-ENR-4.4-en-IE.html,
GILAN,GILAN,SIGNIFICANT_POINT,IRELAND / EISN FIR,55.2300000000,-7.0500000000,AIRNAV IRELAND,2026-06-11,https://www.airnav.ie/AIRAC_MAY_2026/2026-05-14-AIRAC/html/eAIP/EI-ENR-4.4-en-IE.html,
GIMRO,GIMRO,SIGNIFICANT_POINT,IRELAND / EISN FIR,53.6527777778,-5.7486111111,AIRNAV IRELAND,2026-06-11,https://www.airnav.ie/AIRAC_MAY_2026/2026-05-14-AIRAC/html/eAIP/EI-ENR-4.4-en-IE.html,
GIPER,GIPER,SIGNIFICANT_POINT,IRELAND / EISN FIR,51.0000000000,-12.0000000000,AIRNAV IRELAND,2026-06-11,https://www.airnav.ie/AIRAC_MAY_2026/2026-05-14-AIRAC/html/eAIP/EI-ENR-4.4-en-IE.html,
GISTI,GISTI,SIGNIFICANT_POINT,IRELAND / EISN FIR,53.0000000000,-14.0000000000,AIRNAV IRELAND,2026-06-11,https://www.airnav.ie/AIRAC_MAY_2026/2026-05-14-AIRAC/html/eAIP/EI-ENR-4.4-en-IE.html,
GOMUP,GOMUP,SIGNIFICANT_POINT,IRELAND / EISN FIR,57.0000000000,-10.0000000000,AIRNAV IRELAND,2026-06-11,https://www.airnav.ie/AIRAC_MAY_2026/2026-05-14-AIRAC/html/eAIP/EI-ENR-4.4-en-IE.html,
GOTEM,GOTEM,SIGNIFICANT_POINT,IRELAND / EISN FIR,51.8238888889,-7.8200000000,AIRNAV IRELAND,2026-06-11,https://www.airnav.ie/AIRAC_MAY_2026/2026-05-14-AIRAC/html/eAIP/EI-ENR-4.4-en-IE.html,
GUNSO,GUNSO,SIGNIFICANT_POINT,IRELAND / EISN FIR,49.0527777778,-11.7683333333,AIRNAV IRELAND,2026-06-11,https://www.airnav.ie/AIRAC_MAY_2026/2026-05-14-AIRAC/html/eAIP/EI-ENR-4.4-en-IE.html,
GURGA,GURGA,SIGNIFICANT_POINT,IRELAND / EISN FIR,53.1152777778,-6.8333333333,AIRNAV IRELAND,2026-06-11,https://www.airnav.ie/AIRAC_MAY_2026/2026-05-14-AIRAC/html/eAIP/EI-ENR-4.4-en-IE.html,
IBATU,IBATU,SIGNIFICANT_POINT,IRELAND / EISN FIR,54.0866666667,-8.0141666667,AIRNAV IRELAND,2026-06-11,https://www.airnav.ie/AIRAC_MAY_2026/2026-05-14-AIRAC/html/eAIP/EI-ENR-4.4-en-IE.html,
IBROD,IBROD,SIGNIFICANT_POINT,IRELAND / EISN FIR,56.5000000000,-10.0000000000,AIRNAV IRELAND,2026-06-11,https://www.airnav.ie/AIRAC_MAY_2026/2026-05-14-AIRAC/html/eAIP/EI-ENR-4.4-en-IE.html,
INKUR,INKUR,SIGNIFICANT_POINT,IRELAND / EISN FIR,53.5975000000,-7.3913888889,AIRNAV IRELAND,2026-06-11,https://www.airnav.ie/AIRAC_MAY_2026/2026-05-14-AIRAC/html/eAIP/EI-ENR-4.4-en-IE.html,
INRAD,INRAD,SIGNIFICANT_POINT,IRELAND / EISN FIR,52.2580555556,-9.1502777778,AIRNAV IRELAND,2026-06-11,https://www.airnav.ie/AIRAC_MAY_2026/2026-05-14-AIRAC/html/eAIP/EI-ENR-4.4-en-IE.html,
JABEX,JABEX,SIGNIFICANT_POINT,IRELAND / EISN FIR,49.0000000000,-9.5025000000,AIRNAV IRELAND,2026-06-11,https://www.airnav.ie/AIRAC_MAY_2026/2026-05-14-AIRAC/html/eAIP/EI-ENR-4.4-en-IE.html,
KESIX,KESIX,SIGNIFICANT_POINT,IRELAND / EISN FIR,56.9500000000,-14.0000000000,AIRNAV IRELAND,2026-06-11,https://www.airnav.ie/AIRAC_MAY_2026/2026-05-14-AIRAC/html/eAIP/EI-ENR-4.4-en-IE.html,
KOGAD,KOGAD,SIGNIFICANT_POINT,IRELAND / EISN FIR,49.5000000000,-15.0000000000,AIRNAV IRELAND,2026-06-11,https://www.airnav.ie/AIRAC_MAY_2026/2026-05-14-AIRAC/html/eAIP/EI-ENR-4.4-en-IE.html,
KOKIB,KOKIB,SIGNIFICANT_POINT,IRELAND / EISN FIR,54.5000000000,-14.0000000000,AIRNAV IRELAND,2026-06-11,https://www.airnav.ie/AIRAC_MAY_2026/2026-05-14-AIRAC/html/eAIP/EI-ENR-4.4-en-IE.html,
KOMAG,KOMAG,SIGNIFICANT_POINT,IRELAND / EISN FIR,51.7263888889,-8.6152777778,AIRNAV IRELAND,2026-06-11,https://www.airnav.ie/AIRAC_MAY_2026/2026-05-14-AIRAC/html/eAIP/EI-ENR-4.4-en-IE.html,
KOMER,KOMER,SIGNIFICANT_POINT,IRELAND / EISN FIR,52.8494444444,-6.8333333333,AIRNAV IRELAND,2026-06-11,https://www.airnav.ie/AIRAC_MAY_2026/2026-05-14-AIRAC/html/eAIP/EI-ENR-4.4-en-IE.html,
KORAK,KORAK,SIGNIFICANT_POINT,IRELAND / EISN FIR,53.3950000000,-7.7930555556,AIRNAV IRELAND,2026-06-11,https://www.airnav.ie/AIRAC_MAY_2026/2026-05-14-AIRAC/html/eAIP/EI-ENR-4.4-en-IE.html,
KUDAG,KUDAG,SIGNIFICANT_POINT,IRELAND / EISN FIR,54.0050000000,-7.9875000000,AIRNAV IRELAND,2026-06-11,https://www.airnav.ie/AIRAC_MAY_2026/2026-05-14-AIRAC/html/eAIP/EI-ENR-4.4-en-IE.html,
KUGUR,KUGUR,SIGNIFICANT_POINT,IRELAND / EISN FIR,55.5000000000,-10.0000000000,AIRNAV IRELAND,2026-06-11,https://www.airnav.ie/AIRAC_MAY_2026/2026-05-14-AIRAC/html/eAIP/EI-ENR-4.4-en-IE.html,
KURUM,KURUM,SIGNIFICANT_POINT,IRELAND / EISN FIR,52.2286111111,-8.6647222222,AIRNAV IRELAND,2026-06-11,https://www.airnav.ie/AIRAC_MAY_2026/2026-05-14-AIRAC/html/eAIP/EI-ENR-4.4-en-IE.html,
LAPMO,LAPMO,SIGNIFICANT_POINT,IRELAND / EISN FIR,53.4030555556,-5.9455555556,AIRNAV IRELAND,2026-06-11,https://www.airnav.ie/AIRAC_MAY_2026/2026-05-14-AIRAC/html/eAIP/EI-ENR-4.4-en-IE.html,
LASNO,LASNO,SIGNIFICANT_POINT,IRELAND / EISN FIR,48.5983333333,-9.0000000000,AIRNAV IRELAND,2026-06-11,https://www.airnav.ie/AIRAC_MAY_2026/2026-05-14-AIRAC/html/eAIP/EI-ENR-4.4-en-IE.html,
LEDGO,LEDGO,SIGNIFICANT_POINT,IRELAND / EISN FIR,51.2400000000,-7.5680555556,AIRNAV IRELAND,2026-06-11,https://www.airnav.ie/AIRAC_MAY_2026/2026-05-14-AIRAC/html/eAIP/EI-ENR-4.4-en-IE.html,
LEKVA,LEKVA,SIGNIFICANT_POINT,IRELAND / EISN FIR,51.5000000000,-14.0000000000,AIRNAV IRELAND,2026-06-11,https://www.airnav.ie/AIRAC_MAY_2026/2026-05-14-AIRAC/html/eAIP/EI-ENR-4.4-en-IE.html,
LESLU,LESLU,SIGNIFICANT_POINT,IRELAND / EISN FIR,51.0000000000,-8.0000000000,AIRNAV IRELAND,2026-06-11,https://www.airnav.ie/AIRAC_MAY_2026/2026-05-14-AIRAC/html/eAIP/EI-ENR-4.4-en-IE.html,
LIFFY,LIFFY,SIGNIFICANT_POINT,IRELAND / EISN FIR,53.4800000000,-5.5000000000,AIRNAV IRELAND,2026-06-11,https://www.airnav.ie/AIRAC_MAY_2026/2026-05-14-AIRAC/html/eAIP/EI-ENR-4.4-en-IE.html,
LILNO,LILNO,SIGNIFICANT_POINT,IRELAND / EISN FIR,51.5925000000,-9.2200000000,AIRNAV IRELAND,2026-06-11,https://www.airnav.ie/AIRAC_MAY_2026/2026-05-14-AIRAC/html/eAIP/EI-ENR-4.4-en-IE.html,
LIMRI,LIMRI,SIGNIFICANT_POINT,IRELAND / EISN FIR,52.0000000000,-15.0000000000,AIRNAV IRELAND,2026-06-11,https://www.airnav.ie/AIRAC_MAY_2026/2026-05-14-AIRAC/html/eAIP/EI-ENR-4.4-en-IE.html,
LINRA,LINRA,SIGNIFICANT_POINT,IRELAND / EISN FIR,51.5797222222,-10.0322222222,AIRNAV IRELAND,2026-06-11,https://www.airnav.ie/AIRAC_MAY_2026/2026-05-14-AIRAC/html/eAIP/EI-ENR-4.4-en-IE.html,
LIPGO,LIPGO,SIGNIFICANT_POINT,IRELAND / EISN FIR,53.0638888889,-5.5000000000,AIRNAV IRELAND,2026-06-11,https://www.airnav.ie/AIRAC_MAY_2026/2026-05-14-AIRAC/html/eAIP/EI-ENR-4.4-en-IE.html,
LODLA,LODLA,SIGNIFICANT_POINT,IRELAND / EISN FIR,51.9361111111,-10.5280555556,AIRNAV IRELAND,2026-06-11,https://www.airnav.ie/AIRAC_MAY_2026/2026-05-14-AIRAC/html/eAIP/EI-ENR-4.4-en-IE.html,
LONDU,LONDU,SIGNIFICANT_POINT,IRELAND / EISN FIR,52.9166666667,-12.5000000000,AIRNAV IRELAND,2026-06-11,https://www.airnav.ie/AIRAC_MAY_2026/2026-05-14-AIRAC/html/eAIP/EI-ENR-4.4-en-IE.html,
LULOX,LULOX,SIGNIFICANT_POINT,IRELAND / EISN FIR,50.3666666667,-8.0000000000,AIRNAV IRELAND,2026-06-11,https://www.airnav.ie/AIRAC_MAY_2026/2026-05-14-AIRAC/html/eAIP/EI-ENR-4.4-en-IE.html,
LUNIG,LUNIG,SIGNIFICANT_POINT,IRELAND / EISN FIR,52.3972222222,-8.2761111111,AIRNAV IRELAND,2026-06-11,https://www.airnav.ie/AIRAC_MAY_2026/2026-05-14-AIRAC/html/eAIP/EI-ENR-4.4-en-IE.html,
LUPOR,LUPOR,SIGNIFICANT_POINT,IRELAND / EISN FIR,52.5422222222,-9.7019444444,AIRNAV IRELAND,2026-06-11,https://www.airnav.ie/AIRAC_MAY_2026/2026-05-14-AIRAC/html/eAIP/EI-ENR-4.4-en-IE.html,
LUSAT,LUSAT,SIGNIFICANT_POINT,IRELAND / EISN FIR,53.1666666667,-6.2333333333,AIRNAV IRELAND,2026-06-11,https://www.airnav.ie/AIRAC_MAY_2026/2026-05-14-AIRAC/html/eAIP/EI-ENR-4.4-en-IE.html,
LUTOV,LUTOV,SIGNIFICANT_POINT,IRELAND / EISN FIR,55.2394444444,-10.0000000000,AIRNAV IRELAND,2026-06-11,https://www.airnav.ie/AIRAC_MAY_2026/2026-05-14-AIRAC/html/eAIP/EI-ENR-4.4-en-IE.html,
MALOT,MALOT,SIGNIFICANT_POINT,IRELAND / EISN FIR,53.0000000000,-15.0000000000,AIRNAV IRELAND,2026-06-11,https://www.airnav.ie/AIRAC_MAY_2026/2026-05-14-AIRAC/html/eAIP/EI-ENR-4.4-en-IE.html,
MAPAG,MAPAG,SIGNIFICANT_POINT,IRELAND / EISN FIR,51.0000000000,-8.5000000000,AIRNAV IRELAND,2026-06-11,https://www.airnav.ie/AIRAC_MAY_2026/2026-05-14-AIRAC/html/eAIP/EI-ENR-4.4-en-IE.html,
MIMKU,MIMKU,SIGNIFICANT_POINT,IRELAND / EISN FIR,56.0000000000,-10.0000000000,AIRNAV IRELAND,2026-06-11,https://www.airnav.ie/AIRAC_MAY_2026/2026-05-14-AIRAC/html/eAIP/EI-ENR-4.4-en-IE.html,
MOGLO,MOGLO,SIGNIFICANT_POINT,IRELAND / EISN FIR,55.5000000000,-14.0000000000,AIRNAV IRELAND,2026-06-11,https://www.airnav.ie/AIRAC_MAY_2026/2026-05-14-AIRAC/html/eAIP/EI-ENR-4.4-en-IE.html,
MOLAK,MOLAK,SIGNIFICANT_POINT,IRELAND / EISN FIR,54.5969444444,-9.5063888889,AIRNAV IRELAND,2026-06-11,https://www.airnav.ie/AIRAC_MAY_2026/2026-05-14-AIRAC/html/eAIP/EI-ENR-4.4-en-IE.html,
MOMIN,MOMIN,SIGNIFICANT_POINT,IRELAND / EISN FIR,53.1133333333,-9.3927777778,AIRNAV IRELAND,2026-06-11,https://www.airnav.ie/AIRAC_MAY_2026/2026-05-14-AIRAC/html/eAIP/EI-ENR-4.4-en-IE.html,
MOPAT,MOPAT,SIGNIFICANT_POINT,IRELAND / EISN FIR,51.4986111111,-7.0938888889,AIRNAV IRELAND,2026-06-11,https://www.airnav.ie/AIRAC_MAY_2026/2026-05-14-AIRAC/html/eAIP/EI-ENR-4.4-en-IE.html,
MOPOM,MOPOM,SIGNIFICANT_POINT,IRELAND / EISN FIR,53.6811111111,-9.3133333333,AIRNAV IRELAND,2026-06-11,https://www.airnav.ie/AIRAC_MAY_2026/2026-05-14-AIRAC/html/eAIP/EI-ENR-4.4-en-IE.html,
MORAG,MORAG,SIGNIFICANT_POINT,IRELAND / EISN FIR,52.7527777778,-5.5000000000,AIRNAV IRELAND,2026-06-11,https://www.airnav.ie/AIRAC_MAY_2026/2026-05-14-AIRAC/html/eAIP/EI-ENR-4.4-en-IE.html,
NASBA,NASBA,SIGNIFICANT_POINT,IRELAND / EISN FIR,49.0000000000,-13.0000000000,AIRNAV IRELAND,2026-06-11,https://www.airnav.ie/AIRAC_MAY_2026/2026-05-14-AIRAC/html/eAIP/EI-ENR-4.4-en-IE.html,
NAVEM,NAVEM,SIGNIFICANT_POINT,IRELAND / EISN FIR,53.9255555556,-9.3988888889,AIRNAV IRELAND,2026-06-11,https://www.airnav.ie/AIRAC_MAY_2026/2026-05-14-AIRAC/html/eAIP/EI-ENR-4.4-en-IE.html,
NEBIN,NEBIN,SIGNIFICANT_POINT,IRELAND / EISN FIR,53.5000000000,-15.0000000000,AIRNAV IRELAND,2026-06-11,https://www.airnav.ie/AIRAC_MAY_2026/2026-05-14-AIRAC/html/eAIP/EI-ENR-4.4-en-IE.html,
NERTU,NERTU,SIGNIFICANT_POINT,IRELAND / EISN FIR,49.0000000000,-14.0000000000,AIRNAV IRELAND,2026-06-11,https://www.airnav.ie/AIRAC_MAY_2026/2026-05-14-AIRAC/html/eAIP/EI-ENR-4.4-en-IE.html,
NETKI,NETKI,SIGNIFICANT_POINT,IRELAND / EISN FIR,55.0000000000,-14.0000000000,AIRNAV IRELAND,2026-06-11,https://www.airnav.ie/AIRAC_MAY_2026/2026-05-14-AIRAC/html/eAIP/EI-ENR-4.4-en-IE.html,
NEVRI,NEVRI,SIGNIFICANT_POINT,IRELAND / EISN FIR,54.0683333333,-6.2697222222,AIRNAV IRELAND,2026-06-11,https://www.airnav.ie/AIRAC_MAY_2026/2026-05-14-AIRAC/html/eAIP/EI-ENR-4.4-en-IE.html,
NEXAT,NEXAT,SIGNIFICANT_POINT,IRELAND / EISN FIR,51.9388888889,-6.5755555556,AIRNAV IRELAND,2026-06-11,https://www.airnav.ie/AIRAC_MAY_2026/2026-05-14-AIRAC/html/eAIP/EI-ENR-4.4-en-IE.html,
NIBOG,NIBOG,SIGNIFICANT_POINT,IRELAND / EISN FIR,55.0000000000,-10.0000000000,AIRNAV IRELAND,2026-06-11,https://www.airnav.ie/AIRAC_MAY_2026/2026-05-14-AIRAC/html/eAIP/EI-ENR-4.4-en-IE.html,
NIMAT,NIMAT,SIGNIFICANT_POINT,IRELAND / EISN FIR,53.9650000000,-5.7422222222,AIRNAV IRELAND,2026-06-11,https://www.airnav.ie/AIRAC_MAY_2026/2026-05-14-AIRAC/html/eAIP/EI-ENR-4.4-en-IE.html,
NIPIT,NIPIT,SIGNIFICANT_POINT,IRELAND / EISN FIR,54.4525000000,-8.4027777778,AIRNAV IRELAND,2026-06-11,https://www.airnav.ie/AIRAC_MAY_2026/2026-05-14-AIRAC/html/eAIP/EI-ENR-4.4-en-IE.html,
NIRIF,NIRIF,SIGNIFICANT_POINT,IRELAND / EISN FIR,52.2988515278,-5.5678689722,AIRNAV IRELAND,2026-06-11,https://www.airnav.ie/AIRAC_MAY_2026/2026-05-14-AIRAC/html/eAIP/EI-ENR-4.4-en-IE.html,
NORLA,NORLA,SIGNIFICANT_POINT,IRELAND / EISN FIR,51.6191666667,-6.8697222222,AIRNAV IRELAND,2026-06-11,https://www.airnav.ie/AIRAC_MAY_2026/2026-05-14-AIRAC/html/eAIP/EI-ENR-4.4-en-IE.html,
ODANU,ODANU,SIGNIFICANT_POINT,IRELAND / EISN FIR,49.9166666667,-12.5000000000,AIRNAV IRELAND,2026-06-11,https://www.airnav.ie/AIRAC_MAY_2026/2026-05-14-AIRAC/html/eAIP/EI-ENR-4.4-en-IE.html,
OLAPO,OLAPO,SIGNIFICANT_POINT,IRELAND / EISN FIR,53.7802777778,-7.2947222222,AIRNAV IRELAND,2026-06-11,https://www.airnav.ie/AIRAC_MAY_2026/2026-05-14-AIRAC/html/eAIP/EI-ENR-4.4-en-IE.html,
OLGON,OLGON,SIGNIFICANT_POINT,IRELAND / EISN FIR,53.5000000000,-14.0000000000,AIRNAV IRELAND,2026-06-11,https://www.airnav.ie/AIRAC_MAY_2026/2026-05-14-AIRAC/html/eAIP/EI-ENR-4.4-en-IE.html,
OLONO,OLONO,SIGNIFICANT_POINT,IRELAND / EISN FIR,52.7230555556,-6.7788888889,AIRNAV IRELAND,2026-06-11,https://www.airnav.ie/AIRAC_MAY_2026/2026-05-14-AIRAC/html/eAIP/EI-ENR-4.4-en-IE.html,
OMOKO,OMOKO,SIGNIFICANT_POINT,IRELAND / EISN FIR,48.8388888889,-12.0000000000,AIRNAV IRELAND,2026-06-11,https://www.airnav.ie/AIRAC_MAY_2026/2026-05-14-AIRAC/html/eAIP/EI-ENR-4.4-en-IE.html,
ORTOM,ORTOM,SIGNIFICANT_POINT,IRELAND / EISN FIR,51.2708333333,-8.2994444444,AIRNAV IRELAND,2026-06-11,https://www.airnav.ie/AIRAC_MAY_2026/2026-05-14-AIRAC/html/eAIP/EI-ENR-4.4-en-IE.html,
OSBOX,OSBOX,SIGNIFICANT_POINT,IRELAND / EISN FIR,56.8063888889,-12.8016666667,AIRNAV IRELAND,2026-06-11,https://www.airnav.ie/AIRAC_MAY_2026/2026-05-14-AIRAC/html/eAIP/EI-ENR-4.4-en-IE.html,
OSGAR,OSGAR,SIGNIFICANT_POINT,IRELAND / EISN FIR,53.0494444444,-7.2702777778,AIRNAV IRELAND,2026-06-11,https://www.airnav.ie/AIRAC_MAY_2026/2026-05-14-AIRAC/html/eAIP/EI-ENR-4.4-en-IE.html,
PELIG,PELIG,SIGNIFICANT_POINT,IRELAND / EISN FIR,53.1997222222,-7.3333333333,AIRNAV IRELAND,2026-06-11,https://www.airnav.ie/AIRAC_MAY_2026/2026-05-14-AIRAC/html/eAIP/EI-ENR-4.4-en-IE.html,
PESIT,PESIT,SIGNIFICANT_POINT,IRELAND / EISN FIR,52.3991666667,-5.7566666667,AIRNAV IRELAND,2026-06-11,https://www.airnav.ie/AIRAC_MAY_2026/2026-05-14-AIRAC/html/eAIP/EI-ENR-4.4-en-IE.html,
PEVAN,PEVAN,SIGNIFICANT_POINT,IRELAND / EISN FIR,55.7833333333,-11.3333333333,AIRNAV IRELAND,2026-06-11,https://www.airnav.ie/AIRAC_MAY_2026/2026-05-14-AIRAC/html/eAIP/EI-ENR-4.4-en-IE.html,
PIGET,PIGET,SIGNIFICANT_POINT,IRELAND / EISN FIR,55.8333333333,-12.5000000000,AIRNAV IRELAND,2026-06-11,https://www.airnav.ie/AIRAC_MAY_2026/2026-05-14-AIRAC/html/eAIP/EI-ENR-4.4-en-IE.html,
PIKIL,PIKIL,SIGNIFICANT_POINT,IRELAND / EISN FIR,56.0000000000,-15.0000000000,AIRNAV IRELAND,2026-06-11,https://www.airnav.ie/AIRAC_MAY_2026/2026-05-14-AIRAC/html/eAIP/EI-ENR-4.4-en-IE.html,
RATKA,RATKA,SIGNIFICANT_POINT,IRELAND / EISN FIR,49.5000000000,-8.0000000000,AIRNAV IRELAND,2026-06-11,https://www.airnav.ie/AIRAC_MAY_2026/2026-05-14-AIRAC/html/eAIP/EI-ENR-4.4-en-IE.html,
RESNO,RESNO,SIGNIFICANT_POINT,IRELAND / EISN FIR,55.0000000000,-15.0000000000,AIRNAV IRELAND,2026-06-11,https://www.airnav.ie/AIRAC_MAY_2026/2026-05-14-AIRAC/html/eAIP/EI-ENR-4.4-en-IE.html,
REVNU,REVNU,SIGNIFICANT_POINT,IRELAND / EISN FIR,54.4666666667,-10.1166666667,AIRNAV IRELAND,2026-06-11,https://www.airnav.ie/AIRAC_MAY_2026/2026-05-14-AIRAC/html/eAIP/EI-ENR-4.4-en-IE.html,
RIKUL,RIKUL,SIGNIFICANT_POINT,IRELAND / EISN FIR,53.0577777778,-8.3458333333,AIRNAV IRELAND,2026-06-11,https://www.airnav.ie/AIRAC_MAY_2026/2026-05-14-AIRAC/html/eAIP/EI-ENR-4.4-en-IE.html,
RILED,RILED,SIGNIFICANT_POINT,IRELAND / EISN FIR,52.5000000000,-14.0000000000,AIRNAV IRELAND,2026-06-11,https://www.airnav.ie/AIRAC_MAY_2026/2026-05-14-AIRAC/html/eAIP/EI-ENR-4.4-en-IE.html,
RINUS,RINUS,SIGNIFICANT_POINT,IRELAND / EISN FIR,53.6441666667,-7.6622222222,AIRNAV IRELAND,2026-06-11,https://www.airnav.ie/AIRAC_MAY_2026/2026-05-14-AIRAC/html/eAIP/EI-ENR-4.4-en-IE.html,
RODEL,RODEL,SIGNIFICANT_POINT,IRELAND / EISN FIR,50.5000000000,-15.0000000000,AIRNAV IRELAND,2026-06-11,https://www.airnav.ie/AIRAC_MAY_2026/2026-05-14-AIRAC/html/eAIP/EI-ENR-4.4-en-IE.html,
ROTEV,ROTEV,SIGNIFICANT_POINT,IRELAND / EISN FIR,54.0288888889,-6.0661111111,AIRNAV IRELAND,2026-06-11,https://www.airnav.ie/AIRAC_MAY_2026/2026-05-14-AIRAC/html/eAIP/EI-ENR-4.4-en-IE.html,
RUKOH,RUKOH,SIGNIFICANT_POINT,IRELAND / EISN FIR,52.2118979167,-5.7382093889,AIRNAV IRELAND,2026-06-11,https://www.airnav.ie/AIRAC_MAY_2026/2026-05-14-AIRAC/html/eAIP/EI-ENR-4.4-en-IE.html,
RUXIN,RUXIN,SIGNIFICANT_POINT,IRELAND / EISN FIR,56.2819444444,-12.0000000000,AIRNAV IRELAND,2026-06-11,https://www.airnav.ie/AIRAC_MAY_2026/2026-05-14-AIRAC/html/eAIP/EI-ENR-4.4-en-IE.html,
SAMON,SAMON,SIGNIFICANT_POINT,IRELAND / EISN FIR,51.3225000000,-7.4177777778,AIRNAV IRELAND,2026-06-11,https://www.airnav.ie/AIRAC_MAY_2026/2026-05-14-AIRAC/html/eAIP/EI-ENR-4.4-en-IE.html,
SLANY,SLANY,SIGNIFICANT_POINT,IRELAND / EISN FIR,52.1586111111,-5.8422222222,AIRNAV IRELAND,2026-06-11,https://www.airnav.ie/AIRAC_MAY_2026/2026-05-14-AIRAC/html/eAIP/EI-ENR-4.4-en-IE.html,
SOMAX,SOMAX,SIGNIFICANT_POINT,IRELAND / EISN FIR,50.0000000000,-15.0000000000,AIRNAV IRELAND,2026-06-11,https://www.airnav.ie/AIRAC_MAY_2026/2026-05-14-AIRAC/html/eAIP/EI-ENR-4.4-en-IE.html,
SOVED,SOVED,SIGNIFICANT_POINT,IRELAND / EISN FIR,56.0000000000,-14.0000000000,AIRNAV IRELAND,2026-06-11,https://www.airnav.ie/AIRAC_MAY_2026/2026-05-14-AIRAC/html/eAIP/EI-ENR-4.4-en-IE.html,
SOVIX,SOVIX,SIGNIFICANT_POINT,IRELAND / EISN FIR,51.4275000000,-8.5627777778,AIRNAV IRELAND,2026-06-11,https://www.airnav.ie/AIRAC_MAY_2026/2026-05-14-AIRAC/html/eAIP/EI-ENR-4.4-en-IE.html,
SUNOT,SUNOT,SIGNIFICANT_POINT,IRELAND / EISN FIR,57.0000000000,-15.0000000000,AIRNAV IRELAND,2026-06-11,https://www.airnav.ie/AIRAC_MAY_2026/2026-05-14-AIRAC/html/eAIP/EI-ENR-4.4-en-IE.html,
SUROX,SUROX,SIGNIFICANT_POINT,IRELAND / EISN FIR,53.9966666667,-6.9933333333,AIRNAV IRELAND,2026-06-11,https://www.airnav.ie/AIRAC_MAY_2026/2026-05-14-AIRAC/html/eAIP/EI-ENR-4.4-en-IE.html,
SUTEX,SUTEX,SIGNIFICANT_POINT,IRELAND / EISN FIR,52.8244444444,-6.9302777778,AIRNAV IRELAND,2026-06-11,https://www.airnav.ie/AIRAC_MAY_2026/2026-05-14-AIRAC/html/eAIP/EI-ENR-4.4-en-IE.html,
SUVAN,SUVAN,SIGNIFICANT_POINT,IRELAND / EISN FIR,51.4166666667,-12.5000000000,AIRNAV IRELAND,2026-06-11,https://www.airnav.ie/AIRAC_MAY_2026/2026-05-14-AIRAC/html/eAIP/EI-ENR-4.4-en-IE.html,
TADEX,TADEX,SIGNIFICANT_POINT,IRELAND / EISN FIR,54.8566666667,-8.2336111111,AIRNAV IRELAND,2026-06-11,https://www.airnav.ie/AIRAC_MAY_2026/2026-05-14-AIRAC/html/eAIP/EI-ENR-4.4-en-IE.html,
TAKAS,TAKAS,SIGNIFICANT_POINT,IRELAND / EISN FIR,49.0000000000,-8.0000000000,AIRNAV IRELAND,2026-06-11,https://www.airnav.ie/AIRAC_MAY_2026/2026-05-14-AIRAC/html/eAIP/EI-ENR-4.4-en-IE.html,
TAMEL,TAMEL,SIGNIFICANT_POINT,IRELAND / EISN FIR,48.7286111111,-10.4972222222,AIRNAV IRELAND,2026-06-11,https://www.airnav.ie/AIRAC_MAY_2026/2026-05-14-AIRAC/html/eAIP/EI-ENR-4.4-en-IE.html,
TIDGO,TIDGO,SIGNIFICANT_POINT,IRELAND / EISN FIR,53.8438888889,-9.3702777778,AIRNAV IRELAND,2026-06-11,https://www.airnav.ie/AIRAC_MAY_2026/2026-05-14-AIRAC/html/eAIP/EI-ENR-4.4-en-IE.html,
TIPUR,TIPUR,SIGNIFICANT_POINT,IRELAND / EISN FIR,52.5891666667,-8.1252777778,AIRNAV IRELAND,2026-06-11,https://www.airnav.ie/AIRAC_MAY_2026/2026-05-14-AIRAC/html/eAIP/EI-ENR-4.4-en-IE.html,
TISMO,TISMO,SIGNIFICANT_POINT,IRELAND / EISN FIR,52.1347222222,-8.0130555556,AIRNAV IRELAND,2026-06-11,https://www.airnav.ie/AIRAC_MAY_2026/2026-05-14-AIRAC/html/eAIP/EI-ENR-4.4-en-IE.html,
TOBOR,TOBOR,SIGNIFICANT_POINT,IRELAND / EISN FIR,52.5000000000,-15.0000000000,AIRNAV IRELAND,2026-06-11,https://www.airnav.ie/AIRAC_MAY_2026/2026-05-14-AIRAC/html/eAIP/EI-ENR-4.4-en-IE.html,
TOMTO,TOMTO,SIGNIFICANT_POINT,IRELAND / EISN FIR,52.8736111111,-8.1513888889,AIRNAV IRELAND,2026-06-11,https://www.airnav.ie/AIRAC_MAY_2026/2026-05-14-AIRAC/html/eAIP/EI-ENR-4.4-en-IE.html,
TORLU,TORLU,SIGNIFICANT_POINT,IRELAND / EISN FIR,52.9877777778,-7.5830555556,AIRNAV IRELAND,2026-06-11,https://www.airnav.ie/AIRAC_MAY_2026/2026-05-14-AIRAC/html/eAIP/EI-ENR-4.4-en-IE.html,
TUGSI,TUGSI,SIGNIFICANT_POINT,IRELAND / EISN FIR,54.0000000000,-7.1833333333,AIRNAV IRELAND,2026-06-11,https://www.airnav.ie/AIRAC_MAY_2026/2026-05-14-AIRAC/html/eAIP/EI-ENR-4.4-en-IE.html,
TULTA,TULTA,SIGNIFICANT_POINT,IRELAND / EISN FIR,48.5769444444,-8.0000000000,AIRNAV IRELAND,2026-06-11,https://www.airnav.ie/AIRAC_MAY_2026/2026-05-14-AIRAC/html/eAIP/EI-ENR-4.4-en-IE.html,
TURLU,TURLU,SIGNIFICANT_POINT,IRELAND / EISN FIR,50.0763888889,-8.0000000000,AIRNAV IRELAND,2026-06-11,https://www.airnav.ie/AIRAC_MAY_2026/2026-05-14-AIRAC/html/eAIP/EI-ENR-4.4-en-IE.html,
TUVEN,TUVEN,SIGNIFICANT_POINT,IRELAND / EISN FIR,51.0000000000,-8.2500000000,AIRNAV IRELAND,2026-06-11,https://www.airnav.ie/AIRAC_MAY_2026/2026-05-14-AIRAC/html/eAIP/EI-ENR-4.4-en-IE.html,
ULTAG,ULTAG,SIGNIFICANT_POINT,IRELAND / EISN FIR,53.7002777778,-6.7380555556,AIRNAV IRELAND,2026-06-11,https://www.airnav.ie/AIRAC_MAY_2026/2026-05-14-AIRAC/html/eAIP/EI-ENR-4.4-en-IE.html,
UNBEG,UNBEG,SIGNIFICANT_POINT,IRELAND / EISN FIR,52.8050000000,-9.7300000000,AIRNAV IRELAND,2026-06-11,https://www.airnav.ie/AIRAC_MAY_2026/2026-05-14-AIRAC/html/eAIP/EI-ENR-4.4-en-IE.html,
UNLID,UNLID,SIGNIFICANT_POINT,IRELAND / EISN FIR,51.2091666667,-10.7247222222,AIRNAV IRELAND,2026-06-11,https://www.airnav.ie/AIRAC_MAY_2026/2026-05-14-AIRAC/html/eAIP/EI-ENR-4.4-en-IE.html,
VAPAL,VAPAL,SIGNIFICANT_POINT,IRELAND / EISN FIR,51.8786111111,-7.8216666667,AIRNAV IRELAND,2026-06-11,https://www.airnav.ie/AIRAC_MAY_2026/2026-05-14-AIRAC/html/eAIP/EI-ENR-4.4-en-IE.html,
VATRY,VATRY,SIGNIFICANT_POINT,IRELAND / EISN FIR,52.5544444444,-5.5000000000,AIRNAV IRELAND,2026-06-11,https://www.airnav.ie/AIRAC_MAY_2026/2026-05-14-AIRAC/html/eAIP/EI-ENR-4.4-en-IE.html,
VENER,VENER,SIGNIFICANT_POINT,IRELAND / EISN FIR,54.5000000000,-15.0000000000,AIRNAV IRELAND,2026-06-11,https://www.airnav.ie/AIRAC_MAY_2026/2026-05-14-AIRAC/html/eAIP/EI-ENR-4.4-en-IE.html,
WETFI,WETFI,SIGNIFICANT_POINT,IRELAND / EISN FIR,53.8297222222,-5.5000000000,AIRNAV IRELAND,2026-06-11,https://www.airnav.ie/AIRAC_MAY_2026/2026-05-14-AIRAC/html/eAIP/EI-ENR-4.4-en-IE.html,
XETBO,XETBO,SIGNIFICANT_POINT,IRELAND / EISN FIR,52.0000000000,-14.0000000000,AIRNAV IRELAND,2026-06-11,https://www.airnav.ie/AIRAC_MAY_2026/2026-05-14-AIRAC/html/eAIP/EI-ENR-4.4-en-IE.html,
