ident,name,point_type,region,lat,lon,provider,effective_date,source_url,source_page
ADEKI,ADEKI,SIGNIFICANT_POINT,GEORGIA / UGGG FIR,41.2966666667,46.7500000000,AIRNAV GEORGIA,2025-12-25,https://airnav.ge/eaip/2025-12-25-000000/html/eAIP/UG-ENR-4.4-en-GB.html,
AGISO,AGISO,SIGNIFICANT_POINT,GEORGIA / UGGG FIR,41.6277777778,43.4958333333,AIRNAV GEORGIA,2025-12-25,https://airnav.ge/eaip/2025-12-25-000000/html/eAIP/UG-ENR-4.4-en-GB.html,
ANAGU,ANAGU,SIGNIFICANT_POINT,GEORGIA / UGGG FIR,41.6305555556,46.0155555556,AIRNAV GEORGIA,2025-12-25,https://airnav.ge/eaip/2025-12-25-000000/html/eAIP/UG-ENR-4.4-en-GB.html,
BADIR,BADIR,SIGNIFICANT_POINT,GEORGIA / UGGG FIR,41.4833333333,45.3666666667,AIRNAV GEORGIA,2025-12-25,https://airnav.ge/eaip/2025-12-25-000000/html/eAIP/UG-ENR-4.4-en-GB.html,
BAGEM,BAGEM,SIGNIFICANT_POINT,GEORGIA / UGGG FIR,41.5988888889,44.4805555556,AIRNAV GEORGIA,2025-12-25,https://airnav.ge/eaip/2025-12-25-000000/html/eAIP/UG-ENR-4.4-en-GB.html,
BANUT,BANUT,SIGNIFICANT_POINT,GEORGIA / UGGG FIR,42.9897222222,39.9852777778,AIRNAV GEORGIA,2025-12-25,https://airnav.ge/eaip/2025-12-25-000000/html/eAIP/UG-ENR-4.4-en-GB.html,
BARAD,BARAD,SIGNIFICANT_POINT,GEORGIA / UGGG FIR,41.3586111111,45.0833333333,AIRNAV GEORGIA,2025-12-25,https://airnav.ge/eaip/2025-12-25-000000/html/eAIP/UG-ENR-4.4-en-GB.html,
BARUS,BARUS,SIGNIFICANT_POINT,GEORGIA / UGGG FIR,41.9038888889,42.8416666667,AIRNAV GEORGIA,2025-12-25,https://airnav.ge/eaip/2025-12-25-000000/html/eAIP/UG-ENR-4.4-en-GB.html,
BASKA,BASKA,SIGNIFICANT_POINT,GEORGIA / UGGG FIR,42.5830555556,43.4486111111,AIRNAV GEORGIA,2025-12-25,https://airnav.ge/eaip/2025-12-25-000000/html/eAIP/UG-ENR-4.4-en-GB.html,
DEDON,DEDON,SIGNIFICANT_POINT,GEORGIA / UGGG FIR,41.7152777778,45.2466666667,AIRNAV GEORGIA,2025-12-25,https://airnav.ge/eaip/2025-12-25-000000/html/eAIP/UG-ENR-4.4-en-GB.html,
DISKA,DISKA,SIGNIFICANT_POINT,GEORGIA / UGGG FIR,41.4638888889,45.2927777778,AIRNAV GEORGIA,2025-12-25,https://airnav.ge/eaip/2025-12-25-000000/html/eAIP/UG-ENR-4.4-en-GB.html,
EMBUS,EMBUS,SIGNIFICANT_POINT,GEORGIA / UGGG FIR,42.2350000000,43.2805555556,AIRNAV GEORGIA,2025-12-25,https://airnav.ge/eaip/2025-12-25-000000/html/eAIP/UG-ENR-4.4-en-GB.html,
FIBBE,FIBBE,SIGNIFICANT_POINT,GEORGIA / UGGG FIR,42.0094444444,43.3286111111,AIRNAV GEORGIA,2025-12-25,https://airnav.ge/eaip/2025-12-25-000000/html/eAIP/UG-ENR-4.4-en-GB.html,
GIMUR,GIMUR,SIGNIFICANT_POINT,GEORGIA / UGGG FIR,42.0166666667,44.1322222222,AIRNAV GEORGIA,2025-12-25,https://airnav.ge/eaip/2025-12-25-000000/html/eAIP/UG-ENR-4.4-en-GB.html,
GUSLI,GUSLI,SIGNIFICANT_POINT,GEORGIA / UGGG FIR,42.9183333333,43.2838888889,AIRNAV GEORGIA,2025-12-25,https://airnav.ge/eaip/2025-12-25-000000/html/eAIP/UG-ENR-4.4-en-GB.html,
IBERI,IBERI,SIGNIFICANT_POINT,GEORGIA / UGGG FIR,42.1608333333,41.7216666667,AIRNAV GEORGIA,2025-12-25,https://airnav.ge/eaip/2025-12-25-000000/html/eAIP/UG-ENR-4.4-en-GB.html,
IDLER,IDLER,SIGNIFICANT_POINT,GEORGIA / UGGG FIR,42.4902777778,40.1458333333,AIRNAV GEORGIA,2025-12-25,https://airnav.ge/eaip/2025-12-25-000000/html/eAIP/UG-ENR-4.4-en-GB.html,
IZERO,IZERO,SIGNIFICANT_POINT,GEORGIA / UGGG FIR,41.6558333333,41.1088888889,AIRNAV GEORGIA,2025-12-25,https://airnav.ge/eaip/2025-12-25-000000/html/eAIP/UG-ENR-4.4-en-GB.html,
KADZE,KADZE,SIGNIFICANT_POINT,GEORGIA / UGGG FIR,42.3061111111,41.6402777778,AIRNAV GEORGIA,2025-12-25,https://airnav.ge/eaip/2025-12-25-000000/html/eAIP/UG-ENR-4.4-en-GB.html,
KOTAN,KOTAN,SIGNIFICANT_POINT,GEORGIA / UGGG FIR,41.3800000000,46.4566666667,AIRNAV GEORGIA,2025-12-25,https://airnav.ge/eaip/2025-12-25-000000/html/eAIP/UG-ENR-4.4-en-GB.html,
KUFAN,KUFAN,SIGNIFICANT_POINT,GEORGIA / UGGG FIR,41.9550000000,46.2855555556,AIRNAV GEORGIA,2025-12-25,https://airnav.ge/eaip/2025-12-25-000000/html/eAIP/UG-ENR-4.4-en-GB.html,
KUSSA,KUSSA,SIGNIFICANT_POINT,GEORGIA / UGGG FIR,41.9675000000,41.8002777778,AIRNAV GEORGIA,2025-12-25,https://airnav.ge/eaip/2025-12-25-000000/html/eAIP/UG-ENR-4.4-en-GB.html,
LAGAS,LAGAS,SIGNIFICANT_POINT,GEORGIA / UGGG FIR,41.5719444444,44.2313888889,AIRNAV GEORGIA,2025-12-25,https://airnav.ge/eaip/2025-12-25-000000/html/eAIP/UG-ENR-4.4-en-GB.html,
LAMUS,LAMUS,SIGNIFICANT_POINT,GEORGIA / UGGG FIR,41.5444444444,45.5233333333,AIRNAV GEORGIA,2025-12-25,https://airnav.ge/eaip/2025-12-25-000000/html/eAIP/UG-ENR-4.4-en-GB.html,
LAPTO,LAPTO,SIGNIFICANT_POINT,GEORGIA / UGGG FIR,42.6313888889,44.1886111111,AIRNAV GEORGIA,2025-12-25,https://airnav.ge/eaip/2025-12-25-000000/html/eAIP/UG-ENR-4.4-en-GB.html,
LURIS,LURIS,SIGNIFICANT_POINT,GEORGIA / UGGG FIR,42.4236111111,45.7686111111,AIRNAV GEORGIA,2025-12-25,https://airnav.ge/eaip/2025-12-25-000000/html/eAIP/UG-ENR-4.4-en-GB.html,
MAQQO,MAQQO,SIGNIFICANT_POINT,GEORGIA / UGGG FIR,42.0755555556,41.6955555556,AIRNAV GEORGIA,2025-12-25,https://airnav.ge/eaip/2025-12-25-000000/html/eAIP/UG-ENR-4.4-en-GB.html,
NOLGA,NOLGA,SIGNIFICANT_POINT,GEORGIA / UGGG FIR,41.4280555556,42.9788888889,AIRNAV GEORGIA,2025-12-25,https://airnav.ge/eaip/2025-12-25-000000/html/eAIP/UG-ENR-4.4-en-GB.html,
ODILI,ODILI,SIGNIFICANT_POINT,GEORGIA / UGGG FIR,41.7213888889,42.0944444444,AIRNAV GEORGIA,2025-12-25,https://airnav.ge/eaip/2025-12-25-000000/html/eAIP/UG-ENR-4.4-en-GB.html,
OGEVI,OGEVI,SIGNIFICANT_POINT,GEORGIA / UGGG FIR,41.1347222222,43.7869444444,AIRNAV GEORGIA,2025-12-25,https://airnav.ge/eaip/2025-12-25-000000/html/eAIP/UG-ENR-4.4-en-GB.html,
PALLE,PALLE,SIGNIFICANT_POINT,GEORGIA / UGGG FIR,41.4763888889,44.3236111111,AIRNAV GEORGIA,2025-12-25,https://airnav.ge/eaip/2025-12-25-000000/html/eAIP/UG-ENR-4.4-en-GB.html,
PORZA,PORZA,SIGNIFICANT_POINT,GEORGIA / UGGG FIR,41.9522222222,40.8272222222,AIRNAV GEORGIA,2025-12-25,https://airnav.ge/eaip/2025-12-25-000000/html/eAIP/UG-ENR-4.4-en-GB.html,
ROLIN,ROLIN,SIGNIFICANT_POINT,GEORGIA / UGGG FIR,41.7991666667,40.6563888889,AIRNAV GEORGIA,2025-12-25,https://airnav.ge/eaip/2025-12-25-000000/html/eAIP/UG-ENR-4.4-en-GB.html,
SARPI,SARPI,SIGNIFICANT_POINT,GEORGIA / UGGG FIR,41.5488888889,41.4497222222,AIRNAV GEORGIA,2025-12-25,https://airnav.ge/eaip/2025-12-25-000000/html/eAIP/UG-ENR-4.4-en-GB.html,
SOSED,SOSED,SIGNIFICANT_POINT,GEORGIA / UGGG FIR,42.1097222222,41.0041666667,AIRNAV GEORGIA,2025-12-25,https://airnav.ge/eaip/2025-12-25-000000/html/eAIP/UG-ENR-4.4-en-GB.html,
TAGAR,TAGAR,SIGNIFICANT_POINT,GEORGIA / UGGG FIR,42.2783333333,43.0694444444,AIRNAV GEORGIA,2025-12-25,https://airnav.ge/eaip/2025-12-25-000000/html/eAIP/UG-ENR-4.4-en-GB.html,
TAVRO,TAVRO,SIGNIFICANT_POINT,GEORGIA / UGGG FIR,41.1913888889,44.5025000000,AIRNAV GEORGIA,2025-12-25,https://airnav.ge/eaip/2025-12-25-000000/html/eAIP/UG-ENR-4.4-en-GB.html,
TAVSA,TAVSA,SIGNIFICANT_POINT,GEORGIA / UGGG FIR,42.5000000000,44.2488888889,AIRNAV GEORGIA,2025-12-25,https://airnav.ge/eaip/2025-12-25-000000/html/eAIP/UG-ENR-4.4-en-GB.html,
TETRO,TETRO,SIGNIFICANT_POINT,GEORGIA / UGGG FIR,41.6725000000,42.8597222222,AIRNAV GEORGIA,2025-12-25,https://airnav.ge/eaip/2025-12-25-000000/html/eAIP/UG-ENR-4.4-en-GB.html,
TISOT,TISOT,SIGNIFICANT_POINT,GEORGIA / UGGG FIR,41.2680555556,44.8858333333,AIRNAV GEORGIA,2025-12-25,https://airnav.ge/eaip/2025-12-25-000000/html/eAIP/UG-ENR-4.4-en-GB.html,
TUZZA,TUZZA,SIGNIFICANT_POINT,GEORGIA / UGGG FIR,41.8800000000,41.9350000000,AIRNAV GEORGIA,2025-12-25,https://airnav.ge/eaip/2025-12-25-000000/html/eAIP/UG-ENR-4.4-en-GB.html,
VIZRO,VIZRO,SIGNIFICANT_POINT,GEORGIA / UGGG FIR,42.1191666667,43.3052777778,AIRNAV GEORGIA,2025-12-25,https://airnav.ge/eaip/2025-12-25-000000/html/eAIP/UG-ENR-4.4-en-GB.html,
ZAGOT,ZAGOT,SIGNIFICANT_POINT,GEORGIA / UGGG FIR,41.7850000000,44.1363888889,AIRNAV GEORGIA,2025-12-25,https://airnav.ge/eaip/2025-12-25-000000/html/eAIP/UG-ENR-4.4-en-GB.html,
