ident,name,point_type,region,lat,lon,provider,effective_date,source_url,source_page
ABBEY,ABBEY,SIGNIFICANT_POINT,HONG KONG FIR,22.2697222222,114.9238666667,CAD HONG KONG,2026-06-11,https://www.ais.gov.hk/eaip_20260514/2026-06-11-000000/html/eAIP/VH-ENR-4.4-en-US.html,
ADLAD,ADLAD,SIGNIFICANT_POINT,HONG KONG FIR,22.5113166667,114.3312694444,CAD HONG KONG,2026-06-11,https://www.ais.gov.hk/eaip_20260514/2026-06-11-000000/html/eAIP/VH-ENR-4.4-en-US.html,
AGOMU,AGOMU,SIGNIFICANT_POINT,HONG KONG FIR,22.5042138889,114.3749611111,CAD HONG KONG,2026-06-11,https://www.ais.gov.hk/eaip_20260514/2026-06-11-000000/html/eAIP/VH-ENR-4.4-en-US.html,
AKEKU,AKEKU,SIGNIFICANT_POINT,HONG KONG FIR,21.5717583333,117.0526666667,CAD HONG KONG,2026-06-11,https://www.ais.gov.hk/eaip_20260514/2026-06-11-000000/html/eAIP/VH-ENR-4.4-en-US.html,
ALDOM,ALDOM,SIGNIFICANT_POINT,HONG KONG FIR,19.8359250000,114.3740055556,CAD HONG KONG,2026-06-11,https://www.ais.gov.hk/eaip_20260514/2026-06-11-000000/html/eAIP/VH-ENR-4.4-en-US.html,
ALLEY,ALLEY,SIGNIFICANT_POINT,HONG KONG FIR,21.0864305556,113.7859722222,CAD HONG KONG,2026-06-11,https://www.ais.gov.hk/eaip_20260514/2026-06-11-000000/html/eAIP/VH-ENR-4.4-en-US.html,
ANRUX,ANRUX,SIGNIFICANT_POINT,HONG KONG FIR,22.4515916667,114.2116000000,CAD HONG KONG,2026-06-11,https://www.ais.gov.hk/eaip_20260514/2026-06-11-000000/html/eAIP/VH-ENR-4.4-en-US.html,
ARGON,ARGON,SIGNIFICANT_POINT,HONG KONG FIR,22.1979333333,113.7299083333,CAD HONG KONG,2026-06-11,https://www.ais.gov.hk/eaip_20260514/2026-06-11-000000/html/eAIP/VH-ENR-4.4-en-US.html,
ASOBA,ASOBA,SIGNIFICANT_POINT,HONG KONG FIR,17.3727777778,114.5702777778,CAD HONG KONG,2026-06-11,https://www.ais.gov.hk/eaip_20260514/2026-06-11-000000/html/eAIP/VH-ENR-4.4-en-US.html,
ATIKO,ATIKO,SIGNIFICANT_POINT,HONG KONG FIR,21.8082111111,113.5405666667,CAD HONG KONG,2026-06-11,https://www.ais.gov.hk/eaip_20260514/2026-06-11-000000/html/eAIP/VH-ENR-4.4-en-US.html,
BAKER,BAKER,SIGNIFICANT_POINT,HONG KONG FIR,21.2172222222,114.6519444444,CAD HONG KONG,2026-06-11,https://www.ais.gov.hk/eaip_20260514/2026-06-11-000000/html/eAIP/VH-ENR-4.4-en-US.html,
BEKOL,BEKOL,SIGNIFICANT_POINT,HONG KONG FIR,22.5433333333,114.1333333333,CAD HONG KONG,2026-06-11,https://www.ais.gov.hk/eaip_20260514/2026-06-11-000000/html/eAIP/VH-ENR-4.4-en-US.html,
BESDA,BESDA,SIGNIFICANT_POINT,HONG KONG FIR,22.0341972222,116.7791694444,CAD HONG KONG,2026-06-11,https://www.ais.gov.hk/eaip_20260514/2026-06-11-000000/html/eAIP/VH-ENR-4.4-en-US.html,
BETTY,BETTY,SIGNIFICANT_POINT,HONG KONG FIR,21.4863388889,114.5588666667,CAD HONG KONG,2026-06-11,https://www.ais.gov.hk/eaip_20260514/2026-06-11-000000/html/eAIP/VH-ENR-4.4-en-US.html,
BIGEX,BIGEX,SIGNIFICANT_POINT,HONG KONG FIR,22.2195416667,114.0300555556,CAD HONG KONG,2026-06-11,https://www.ais.gov.hk/eaip_20260514/2026-06-11-000000/html/eAIP/VH-ENR-4.4-en-US.html,
BOKAG,BOKAG,SIGNIFICANT_POINT,HONG KONG FIR,22.5296250000,114.2241833333,CAD HONG KONG,2026-06-11,https://www.ais.gov.hk/eaip_20260514/2026-06-11-000000/html/eAIP/VH-ENR-4.4-en-US.html,
BORDA,BORDA,SIGNIFICANT_POINT,HONG KONG FIR,21.6923250000,113.4080583333,CAD HONG KONG,2026-06-11,https://www.ais.gov.hk/eaip_20260514/2026-06-11-000000/html/eAIP/VH-ENR-4.4-en-US.html,
BUMDI,BUMDI,SIGNIFICANT_POINT,HONG KONG FIR,22.3610055556,114.3146138889,CAD HONG KONG,2026-06-11,https://www.ais.gov.hk/eaip_20260514/2026-06-11-000000/html/eAIP/VH-ENR-4.4-en-US.html,
CANTO,CANTO,SIGNIFICANT_POINT,HONG KONG FIR,21.6507305556,113.7069694444,CAD HONG KONG,2026-06-11,https://www.ais.gov.hk/eaip_20260514/2026-06-11-000000/html/eAIP/VH-ENR-4.4-en-US.html,
CANUP,CANUP,SIGNIFICANT_POINT,HONG KONG FIR,22.4173722222,114.2295555556,CAD HONG KONG,2026-06-11,https://www.ais.gov.hk/eaip_20260514/2026-06-11-000000/html/eAIP/VH-ENR-4.4-en-US.html,
CARSO,CARSO,SIGNIFICANT_POINT,HONG KONG FIR,19.0000000000,114.7104861111,CAD HONG KONG,2026-06-11,https://www.ais.gov.hk/eaip_20260514/2026-06-11-000000/html/eAIP/VH-ENR-4.4-en-US.html,
CHALI,CHALI,SIGNIFICANT_POINT,HONG KONG FIR,21.2958333333,113.6113888889,CAD HONG KONG,2026-06-11,https://www.ais.gov.hk/eaip_20260514/2026-06-11-000000/html/eAIP/VH-ENR-4.4-en-US.html,
COMBI,COMBI,SIGNIFICANT_POINT,HONG KONG FIR,21.4936388889,113.4623055556,CAD HONG KONG,2026-06-11,https://www.ais.gov.hk/eaip_20260514/2026-06-11-000000/html/eAIP/VH-ENR-4.4-en-US.html,
CONGA,CONGA,SIGNIFICANT_POINT,HONG KONG FIR,21.7340277778,116.7849722222,CAD HONG KONG,2026-06-11,https://www.ais.gov.hk/eaip_20260514/2026-06-11-000000/html/eAIP/VH-ENR-4.4-en-US.html,
COTON,COTON,SIGNIFICANT_POINT,HONG KONG FIR,21.1567138889,113.1836222222,CAD HONG KONG,2026-06-11,https://www.ais.gov.hk/eaip_20260514/2026-06-11-000000/html/eAIP/VH-ENR-4.4-en-US.html,
CUSDO,CUSDO,SIGNIFICANT_POINT,HONG KONG FIR,22.2788500000,114.0954444444,CAD HONG KONG,2026-06-11,https://www.ais.gov.hk/eaip_20260514/2026-06-11-000000/html/eAIP/VH-ENR-4.4-en-US.html,
CYBER,CYBER,SIGNIFICANT_POINT,HONG KONG FIR,20.8471222222,114.5529333333,CAD HONG KONG,2026-06-11,https://www.ais.gov.hk/eaip_20260514/2026-06-11-000000/html/eAIP/VH-ENR-4.4-en-US.html,
DAGBU,DAGBU,SIGNIFICANT_POINT,HONG KONG FIR,20.5494416667,112.1527972222,CAD HONG KONG,2026-06-11,https://www.ais.gov.hk/eaip_20260514/2026-06-11-000000/html/eAIP/VH-ENR-4.4-en-US.html,
DAKIG,DAKIG,SIGNIFICANT_POINT,HONG KONG FIR,21.8480277778,114.4425916667,CAD HONG KONG,2026-06-11,https://www.ais.gov.hk/eaip_20260514/2026-06-11-000000/html/eAIP/VH-ENR-4.4-en-US.html,
DAKTO,DAKTO,SIGNIFICANT_POINT,HONG KONG FIR,20.8919138889,115.1876611111,CAD HONG KONG,2026-06-11,https://www.ais.gov.hk/eaip_20260514/2026-06-11-000000/html/eAIP/VH-ENR-4.4-en-US.html,
DALOL,DALOL,SIGNIFICANT_POINT,HONG KONG FIR,21.7435833333,114.8459277778,CAD HONG KONG,2026-06-11,https://www.ais.gov.hk/eaip_20260514/2026-06-11-000000/html/eAIP/VH-ENR-4.4-en-US.html,
DASON,DASON,SIGNIFICANT_POINT,HONG KONG FIR,21.0564638889,112.8778861111,CAD HONG KONG,2026-06-11,https://www.ais.gov.hk/eaip_20260514/2026-06-11-000000/html/eAIP/VH-ENR-4.4-en-US.html,
DOSUT,DOSUT,SIGNIFICANT_POINT,HONG KONG FIR,17.0333333333,113.6800000000,CAD HONG KONG,2026-06-11,https://www.ais.gov.hk/eaip_20260514/2026-06-11-000000/html/eAIP/VH-ENR-4.4-en-US.html,
DOTMI,DOTMI,SIGNIFICANT_POINT,HONG KONG FIR,22.7183333333,116.1683333333,CAD HONG KONG,2026-06-11,https://www.ais.gov.hk/eaip_20260514/2026-06-11-000000/html/eAIP/VH-ENR-4.4-en-US.html,
DULOP,DULOP,SIGNIFICANT_POINT,HONG KONG FIR,18.2366666667,114.5433333333,CAD HONG KONG,2026-06-11,https://www.ais.gov.hk/eaip_20260514/2026-06-11-000000/html/eAIP/VH-ENR-4.4-en-US.html,
DUMEP,DUMEP,SIGNIFICANT_POINT,HONG KONG FIR,21.7434166667,115.2138527778,CAD HONG KONG,2026-06-11,https://www.ais.gov.hk/eaip_20260514/2026-06-11-000000/html/eAIP/VH-ENR-4.4-en-US.html,
DUMOL,DUMOL,SIGNIFICANT_POINT,HONG KONG FIR,19.0000000000,114.4466666667,CAD HONG KONG,2026-06-11,https://www.ais.gov.hk/eaip_20260514/2026-06-11-000000/html/eAIP/VH-ENR-4.4-en-US.html,
EATON,EATON,SIGNIFICANT_POINT,HONG KONG FIR,21.1234444444,115.7169722222,CAD HONG KONG,2026-06-11,https://www.ais.gov.hk/eaip_20260514/2026-06-11-000000/html/eAIP/VH-ENR-4.4-en-US.html,
ELATO,ELATO,SIGNIFICANT_POINT,HONG KONG FIR,22.3333333333,117.5000000000,CAD HONG KONG,2026-06-11,https://www.ais.gov.hk/eaip_20260514/2026-06-11-000000/html/eAIP/VH-ENR-4.4-en-US.html,
ENBOK,ENBOK,SIGNIFICANT_POINT,HONG KONG FIR,18.5566666667,113.4916666667,CAD HONG KONG,2026-06-11,https://www.ais.gov.hk/eaip_20260514/2026-06-11-000000/html/eAIP/VH-ENR-4.4-en-US.html,
ENPET,ENPET,SIGNIFICANT_POINT,HONG KONG FIR,22.2925444444,115.6901000000,CAD HONG KONG,2026-06-11,https://www.ais.gov.hk/eaip_20260514/2026-06-11-000000/html/eAIP/VH-ENR-4.4-en-US.html,
ENVAR,ENVAR,SIGNIFICANT_POINT,HONG KONG FIR,21.9916666667,117.5000000000,CAD HONG KONG,2026-06-11,https://www.ais.gov.hk/eaip_20260514/2026-06-11-000000/html/eAIP/VH-ENR-4.4-en-US.html,
EPDOS,EPDOS,SIGNIFICANT_POINT,HONG KONG FIR,19.0000000000,113.5550000000,CAD HONG KONG,2026-06-11,https://www.ais.gov.hk/eaip_20260514/2026-06-11-000000/html/eAIP/VH-ENR-4.4-en-US.html,
EPKAL,EPKAL,SIGNIFICANT_POINT,HONG KONG FIR,17.8583333333,112.9550000000,CAD HONG KONG,2026-06-11,https://www.ais.gov.hk/eaip_20260514/2026-06-11-000000/html/eAIP/VH-ENR-4.4-en-US.html,
FIDLA,FIDLA,SIGNIFICANT_POINT,HONG KONG FIR,22.2350083333,114.0624694444,CAD HONG KONG,2026-06-11,https://www.ais.gov.hk/eaip_20260514/2026-06-11-000000/html/eAIP/VH-ENR-4.4-en-US.html,
FISHA,FISHA,SIGNIFICANT_POINT,HONG KONG FIR,22.2826777778,115.3365583333,CAD HONG KONG,2026-06-11,https://www.ais.gov.hk/eaip_20260514/2026-06-11-000000/html/eAIP/VH-ENR-4.4-en-US.html,
GAMBA,GAMBA,SIGNIFICANT_POINT,HONG KONG FIR,21.3189222222,112.9267250000,CAD HONG KONG,2026-06-11,https://www.ais.gov.hk/eaip_20260514/2026-06-11-000000/html/eAIP/VH-ENR-4.4-en-US.html,
GODEN,GODEN,SIGNIFICANT_POINT,HONG KONG FIR,20.5764861111,114.3090222222,CAD HONG KONG,2026-06-11,https://www.ais.gov.hk/eaip_20260514/2026-06-11-000000/html/eAIP/VH-ENR-4.4-en-US.html,
GONAT,GONAT,SIGNIFICANT_POINT,HONG KONG FIR,22.5423055556,114.2575166667,CAD HONG KONG,2026-06-11,https://www.ais.gov.hk/eaip_20260514/2026-06-11-000000/html/eAIP/VH-ENR-4.4-en-US.html,
GUAVA,GUAVA,SIGNIFICANT_POINT,HONG KONG FIR,22.1600277778,114.0600833333,CAD HONG KONG,2026-06-11,https://www.ais.gov.hk/eaip_20260514/2026-06-11-000000/html/eAIP/VH-ENR-4.4-en-US.html,
HAZEL,HAZEL,SIGNIFICANT_POINT,HONG KONG FIR,22.0240250000,113.6823972222,CAD HONG KONG,2026-06-11,https://www.ais.gov.hk/eaip_20260514/2026-06-11-000000/html/eAIP/VH-ENR-4.4-en-US.html,
HOCKY,HOCKY,SIGNIFICANT_POINT,HONG KONG FIR,20.5970416667,114.5745777778,CAD HONG KONG,2026-06-11,https://www.ais.gov.hk/eaip_20260514/2026-06-11-000000/html/eAIP/VH-ENR-4.4-en-US.html,
IDOSI,IDOSI,SIGNIFICANT_POINT,HONG KONG FIR,19.0000000000,112.5000000000,CAD HONG KONG,2026-06-11,https://www.ais.gov.hk/eaip_20260514/2026-06-11-000000/html/eAIP/VH-ENR-4.4-en-US.html,
IKELA,IKELA,SIGNIFICANT_POINT,HONG KONG FIR,18.6616666667,112.2450000000,CAD HONG KONG,2026-06-11,https://www.ais.gov.hk/eaip_20260514/2026-06-11-000000/html/eAIP/VH-ENR-4.4-en-US.html,
INDUS,INDUS,SIGNIFICANT_POINT,HONG KONG FIR,22.0447222222,113.6002777778,CAD HONG KONG,2026-06-11,https://www.ais.gov.hk/eaip_20260514/2026-06-11-000000/html/eAIP/VH-ENR-4.4-en-US.html,
IONIC,IONIC,SIGNIFICANT_POINT,HONG KONG FIR,22.2679166667,114.0872027778,CAD HONG KONG,2026-06-11,https://www.ais.gov.hk/eaip_20260514/2026-06-11-000000/html/eAIP/VH-ENR-4.4-en-US.html,
ISBAN,ISBAN,SIGNIFICANT_POINT,HONG KONG FIR,20.8262027778,114.2869750000,CAD HONG KONG,2026-06-11,https://www.ais.gov.hk/eaip_20260514/2026-06-11-000000/html/eAIP/VH-ENR-4.4-en-US.html,
KAPLI,KAPLI,SIGNIFICANT_POINT,HONG KONG FIR,21.1666666667,117.5000000000,CAD HONG KONG,2026-06-11,https://www.ais.gov.hk/eaip_20260514/2026-06-11-000000/html/eAIP/VH-ENR-4.4-en-US.html,
KEMTE,KEMTE,SIGNIFICANT_POINT,HONG KONG FIR,22.0957111111,114.1140388889,CAD HONG KONG,2026-06-11,https://www.ais.gov.hk/eaip_20260514/2026-06-11-000000/html/eAIP/VH-ENR-4.4-en-US.html,
KILOG,KILOG,SIGNIFICANT_POINT,HONG KONG FIR,21.8741666667,114.6936111111,CAD HONG KONG,2026-06-11,https://www.ais.gov.hk/eaip_20260514/2026-06-11-000000/html/eAIP/VH-ENR-4.4-en-US.html,
LAMMA,LAMMA,SIGNIFICANT_POINT,HONG KONG FIR,22.2821138889,114.0862638889,CAD HONG KONG,2026-06-11,https://www.ais.gov.hk/eaip_20260514/2026-06-11-000000/html/eAIP/VH-ENR-4.4-en-US.html,
LARIT,LARIT,SIGNIFICANT_POINT,HONG KONG FIR,21.8948250000,115.2684888889,CAD HONG KONG,2026-06-11,https://www.ais.gov.hk/eaip_20260514/2026-06-11-000000/html/eAIP/VH-ENR-4.4-en-US.html,
LAXET,LAXET,SIGNIFICANT_POINT,HONG KONG FIR,20.9379361111,114.0014222222,CAD HONG KONG,2026-06-11,https://www.ais.gov.hk/eaip_20260514/2026-06-11-000000/html/eAIP/VH-ENR-4.4-en-US.html,
LEKEN,LEKEN,SIGNIFICANT_POINT,HONG KONG FIR,21.8836277778,114.9124861111,CAD HONG KONG,2026-06-11,https://www.ais.gov.hk/eaip_20260514/2026-06-11-000000/html/eAIP/VH-ENR-4.4-en-US.html,
LELIM,LELIM,SIGNIFICANT_POINT,HONG KONG FIR,22.9400000000,117.3116666667,CAD HONG KONG,2026-06-11,https://www.ais.gov.hk/eaip_20260514/2026-06-11-000000/html/eAIP/VH-ENR-4.4-en-US.html,
LIKBI,LIKBI,SIGNIFICANT_POINT,HONG KONG FIR,22.4120500000,114.2589166667,CAD HONG KONG,2026-06-11,https://www.ais.gov.hk/eaip_20260514/2026-06-11-000000/html/eAIP/VH-ENR-4.4-en-US.html,
LIMES,LIMES,SIGNIFICANT_POINT,HONG KONG FIR,22.1071111111,113.7757222222,CAD HONG KONG,2026-06-11,https://www.ais.gov.hk/eaip_20260514/2026-06-11-000000/html/eAIP/VH-ENR-4.4-en-US.html,
LIMSU,LIMSU,SIGNIFICANT_POINT,HONG KONG FIR,22.7408583333,117.1938388889,CAD HONG KONG,2026-06-11,https://www.ais.gov.hk/eaip_20260514/2026-06-11-000000/html/eAIP/VH-ENR-4.4-en-US.html,
LUBMO,LUBMO,SIGNIFICANT_POINT,HONG KONG FIR,21.9653444444,114.5313833333,CAD HONG KONG,2026-06-11,https://www.ais.gov.hk/eaip_20260514/2026-06-11-000000/html/eAIP/VH-ENR-4.4-en-US.html,
LUDLA,LUDLA,SIGNIFICANT_POINT,HONG KONG FIR,22.2279972222,114.0746527778,CAD HONG KONG,2026-06-11,https://www.ais.gov.hk/eaip_20260514/2026-06-11-000000/html/eAIP/VH-ENR-4.4-en-US.html,
LUKBU,LUKBU,SIGNIFICANT_POINT,HONG KONG FIR,22.3789222222,113.8837500000,CAD HONG KONG,2026-06-11,https://www.ais.gov.hk/eaip_20260514/2026-06-11-000000/html/eAIP/VH-ENR-4.4-en-US.html,
MAGOG,MAGOG,SIGNIFICANT_POINT,HONG KONG FIR,22.2961111111,115.8250000000,CAD HONG KONG,2026-06-11,https://www.ais.gov.hk/eaip_20260514/2026-06-11-000000/html/eAIP/VH-ENR-4.4-en-US.html,
MALKA,MALKA,SIGNIFICANT_POINT,HONG KONG FIR,22.7371111111,117.0115861111,CAD HONG KONG,2026-06-11,https://www.ais.gov.hk/eaip_20260514/2026-06-11-000000/html/eAIP/VH-ENR-4.4-en-US.html,
MANGO,MANGO,SIGNIFICANT_POINT,HONG KONG FIR,21.6136111111,114.5147222222,CAD HONG KONG,2026-06-11,https://www.ais.gov.hk/eaip_20260514/2026-06-11-000000/html/eAIP/VH-ENR-4.4-en-US.html,
MAPLE,MAPLE,SIGNIFICANT_POINT,HONG KONG FIR,21.3741166667,113.0952277778,CAD HONG KONG,2026-06-11,https://www.ais.gov.hk/eaip_20260514/2026-06-11-000000/html/eAIP/VH-ENR-4.4-en-US.html,
MEBKI,MEBKI,SIGNIFICANT_POINT,HONG KONG FIR,21.7424305556,115.5817333333,CAD HONG KONG,2026-06-11,https://www.ais.gov.hk/eaip_20260514/2026-06-11-000000/html/eAIP/VH-ENR-4.4-en-US.html,
MEPUT,MEPUT,SIGNIFICANT_POINT,HONG KONG FIR,21.6330555556,115.7555000000,CAD HONG KONG,2026-06-11,https://www.ais.gov.hk/eaip_20260514/2026-06-11-000000/html/eAIP/VH-ENR-4.4-en-US.html,
MULET,MULET,SIGNIFICANT_POINT,HONG KONG FIR,21.5838750000,113.7977416667,CAD HONG KONG,2026-06-11,https://www.ais.gov.hk/eaip_20260514/2026-06-11-000000/html/eAIP/VH-ENR-4.4-en-US.html,
MURRY,MURRY,SIGNIFICANT_POINT,HONG KONG FIR,21.7578805556,113.8116583333,CAD HONG KONG,2026-06-11,https://www.ais.gov.hk/eaip_20260514/2026-06-11-000000/html/eAIP/VH-ENR-4.4-en-US.html,
MUSEL,MUSEL,SIGNIFICANT_POINT,HONG KONG FIR,22.2649972222,114.7811472222,CAD HONG KONG,2026-06-11,https://www.ais.gov.hk/eaip_20260514/2026-06-11-000000/html/eAIP/VH-ENR-4.4-en-US.html,
MYWAY,MYWAY,SIGNIFICANT_POINT,HONG KONG FIR,20.1961944444,112.7188055556,CAD HONG KONG,2026-06-11,https://www.ais.gov.hk/eaip_20260514/2026-06-11-000000/html/eAIP/VH-ENR-4.4-en-US.html,
NEDLE,NEDLE,SIGNIFICANT_POINT,HONG KONG FIR,22.3872083333,114.6992972222,CAD HONG KONG,2026-06-11,https://www.ais.gov.hk/eaip_20260514/2026-06-11-000000/html/eAIP/VH-ENR-4.4-en-US.html,
NIXUS,NIXUS,SIGNIFICANT_POINT,HONG KONG FIR,22.4894583333,114.1721388889,CAD HONG KONG,2026-06-11,https://www.ais.gov.hk/eaip_20260514/2026-06-11-000000/html/eAIP/VH-ENR-4.4-en-US.html,
NOLIB,NOLIB,SIGNIFICANT_POINT,HONG KONG FIR,22.4274861111,114.0102333333,CAD HONG KONG,2026-06-11,https://www.ais.gov.hk/eaip_20260514/2026-06-11-000000/html/eAIP/VH-ENR-4.4-en-US.html,
NOMAN,NOMAN,SIGNIFICANT_POINT,HONG KONG FIR,20.0000000000,116.6716666667,CAD HONG KONG,2026-06-11,https://www.ais.gov.hk/eaip_20260514/2026-06-11-000000/html/eAIP/VH-ENR-4.4-en-US.html,
NOPER,NOPER,SIGNIFICANT_POINT,HONG KONG FIR,20.8466805556,116.1005472222,CAD HONG KONG,2026-06-11,https://www.ais.gov.hk/eaip_20260514/2026-06-11-000000/html/eAIP/VH-ENR-4.4-en-US.html,
NUDPI,NUDPI,SIGNIFICANT_POINT,HONG KONG FIR,21.9052500000,115.6245027778,CAD HONG KONG,2026-06-11,https://www.ais.gov.hk/eaip_20260514/2026-06-11-000000/html/eAIP/VH-ENR-4.4-en-US.html,
OSUMO,OSUMO,SIGNIFICANT_POINT,HONG KONG FIR,20.5536750000,115.5422361111,CAD HONG KONG,2026-06-11,https://www.ais.gov.hk/eaip_20260514/2026-06-11-000000/html/eAIP/VH-ENR-4.4-en-US.html,
OTKUM,OTKUM,SIGNIFICANT_POINT,HONG KONG FIR,22.0595000000,114.0821805556,CAD HONG KONG,2026-06-11,https://www.ais.gov.hk/eaip_20260514/2026-06-11-000000/html/eAIP/VH-ENR-4.4-en-US.html,
PECAN,PECAN,SIGNIFICANT_POINT,HONG KONG FIR,21.4389416667,114.0349000000,CAD HONG KONG,2026-06-11,https://www.ais.gov.hk/eaip_20260514/2026-06-11-000000/html/eAIP/VH-ENR-4.4-en-US.html,
PONTI,PONTI,SIGNIFICANT_POINT,HONG KONG FIR,22.3712083333,114.4627305556,CAD HONG KONG,2026-06-11,https://www.ais.gov.hk/eaip_20260514/2026-06-11-000000/html/eAIP/VH-ENR-4.4-en-US.html,
PORPA,PORPA,SIGNIFICANT_POINT,HONG KONG FIR,22.3358611111,114.0211944444,CAD HONG KONG,2026-06-11,https://www.ais.gov.hk/eaip_20260514/2026-06-11-000000/html/eAIP/VH-ENR-4.4-en-US.html,
POVAM,POVAM,SIGNIFICANT_POINT,HONG KONG FIR,21.2485194444,115.3519833333,CAD HONG KONG,2026-06-11,https://www.ais.gov.hk/eaip_20260514/2026-06-11-000000/html/eAIP/VH-ENR-4.4-en-US.html,
POVEG,POVEG,SIGNIFICANT_POINT,HONG KONG FIR,22.2953555556,113.8010055556,CAD HONG KONG,2026-06-11,https://www.ais.gov.hk/eaip_20260514/2026-06-11-000000/html/eAIP/VH-ENR-4.4-en-US.html,
PRAWN,PRAWN,SIGNIFICANT_POINT,HONG KONG FIR,22.2681666667,113.8111388889,CAD HONG KONG,2026-06-11,https://www.ais.gov.hk/eaip_20260514/2026-06-11-000000/html/eAIP/VH-ENR-4.4-en-US.html,
RAGSO,RAGSO,SIGNIFICANT_POINT,HONG KONG FIR,20.7589805556,111.9824194444,CAD HONG KONG,2026-06-11,https://www.ais.gov.hk/eaip_20260514/2026-06-11-000000/html/eAIP/VH-ENR-4.4-en-US.html,
RAMEN,RAMEN,SIGNIFICANT_POINT,HONG KONG FIR,22.1608944444,114.0860805556,CAD HONG KONG,2026-06-11,https://www.ais.gov.hk/eaip_20260514/2026-06-11-000000/html/eAIP/VH-ENR-4.4-en-US.html,
RIVMI,RIVMI,SIGNIFICANT_POINT,HONG KONG FIR,22.4011000000,114.3192444444,CAD HONG KONG,2026-06-11,https://www.ais.gov.hk/eaip_20260514/2026-06-11-000000/html/eAIP/VH-ENR-4.4-en-US.html,
ROBIN,ROBIN,SIGNIFICANT_POINT,HONG KONG FIR,21.0458333333,114.2683333333,CAD HONG KONG,2026-06-11,https://www.ais.gov.hk/eaip_20260514/2026-06-11-000000/html/eAIP/VH-ENR-4.4-en-US.html,
ROCCA,ROCCA,SIGNIFICANT_POINT,HONG KONG FIR,21.5320611111,113.5809555556,CAD HONG KONG,2026-06-11,https://www.ais.gov.hk/eaip_20260514/2026-06-11-000000/html/eAIP/VH-ENR-4.4-en-US.html,
ROVER,ROVER,SIGNIFICANT_POINT,HONG KONG FIR,22.3432166667,114.0275333333,CAD HONG KONG,2026-06-11,https://www.ais.gov.hk/eaip_20260514/2026-06-11-000000/html/eAIP/VH-ENR-4.4-en-US.html,
RUMSY,RUMSY,SIGNIFICANT_POINT,HONG KONG FIR,22.0824833333,113.8046638889,CAD HONG KONG,2026-06-11,https://www.ais.gov.hk/eaip_20260514/2026-06-11-000000/html/eAIP/VH-ENR-4.4-en-US.html,
RUNLI,RUNLI,SIGNIFICANT_POINT,HONG KONG FIR,21.4499222222,113.6808333333,CAD HONG KONG,2026-06-11,https://www.ais.gov.hk/eaip_20260514/2026-06-11-000000/html/eAIP/VH-ENR-4.4-en-US.html,
RUNSU,RUNSU,SIGNIFICANT_POINT,HONG KONG FIR,22.4230444444,114.1982138889,CAD HONG KONG,2026-06-11,https://www.ais.gov.hk/eaip_20260514/2026-06-11-000000/html/eAIP/VH-ENR-4.4-en-US.html,
RUSBI,RUSBI,SIGNIFICANT_POINT,HONG KONG FIR,20.7826000000,115.6910916667,CAD HONG KONG,2026-06-11,https://www.ais.gov.hk/eaip_20260514/2026-06-11-000000/html/eAIP/VH-ENR-4.4-en-US.html,
SABNO,SABNO,SIGNIFICANT_POINT,HONG KONG FIR,18.9850000000,115.8450000000,CAD HONG KONG,2026-06-11,https://www.ais.gov.hk/eaip_20260514/2026-06-11-000000/html/eAIP/VH-ENR-4.4-en-US.html,
SAGNI,SAGNI,SIGNIFICANT_POINT,HONG KONG FIR,22.3962861111,114.1146333333,CAD HONG KONG,2026-06-11,https://www.ais.gov.hk/eaip_20260514/2026-06-11-000000/html/eAIP/VH-ENR-4.4-en-US.html,
SAMED,SAMED,SIGNIFICANT_POINT,HONG KONG FIR,22.0786111111,114.4421750000,CAD HONG KONG,2026-06-11,https://www.ais.gov.hk/eaip_20260514/2026-06-11-000000/html/eAIP/VH-ENR-4.4-en-US.html,
SAMMI,SAMMI,SIGNIFICANT_POINT,HONG KONG FIR,22.4666666667,115.9616666667,CAD HONG KONG,2026-06-11,https://www.ais.gov.hk/eaip_20260514/2026-06-11-000000/html/eAIP/VH-ENR-4.4-en-US.html,
SAPAX,SAPAX,SIGNIFICANT_POINT,HONG KONG FIR,21.6555111111,114.2132277778,CAD HONG KONG,2026-06-11,https://www.ais.gov.hk/eaip_20260514/2026-06-11-000000/html/eAIP/VH-ENR-4.4-en-US.html,
SEGPO,SEGPO,SIGNIFICANT_POINT,HONG KONG FIR,21.9591027778,114.3551638889,CAD HONG KONG,2026-06-11,https://www.ais.gov.hk/eaip_20260514/2026-06-11-000000/html/eAIP/VH-ENR-4.4-en-US.html,
SIKOU,SIKOU,SIGNIFICANT_POINT,HONG KONG FIR,20.8433333333,111.5000000000,CAD HONG KONG,2026-06-11,https://www.ais.gov.hk/eaip_20260514/2026-06-11-000000/html/eAIP/VH-ENR-4.4-en-US.html,
SILVA,SILVA,SIGNIFICANT_POINT,HONG KONG FIR,21.8512500000,113.9030222222,CAD HONG KONG,2026-06-11,https://www.ais.gov.hk/eaip_20260514/2026-06-11-000000/html/eAIP/VH-ENR-4.4-en-US.html,
SKATE,SKATE,SIGNIFICANT_POINT,HONG KONG FIR,21.5319416667,115.1444277778,CAD HONG KONG,2026-06-11,https://www.ais.gov.hk/eaip_20260514/2026-06-11-000000/html/eAIP/VH-ENR-4.4-en-US.html,
SOKOE,SOKOE,SIGNIFICANT_POINT,HONG KONG FIR,22.0781111111,113.8439166667,CAD HONG KONG,2026-06-11,https://www.ais.gov.hk/eaip_20260514/2026-06-11-000000/html/eAIP/VH-ENR-4.4-en-US.html,
SONNY,SONNY,SIGNIFICANT_POINT,HONG KONG FIR,21.0176833333,115.0552250000,CAD HONG KONG,2026-06-11,https://www.ais.gov.hk/eaip_20260514/2026-06-11-000000/html/eAIP/VH-ENR-4.4-en-US.html,
SOSLU,SOSLU,SIGNIFICANT_POINT,HONG KONG FIR,21.6455638889,114.0884416667,CAD HONG KONG,2026-06-11,https://www.ais.gov.hk/eaip_20260514/2026-06-11-000000/html/eAIP/VH-ENR-4.4-en-US.html,
SOUSA,SOUSA,SIGNIFICANT_POINT,HONG KONG FIR,22.0195555556,116.1910555556,CAD HONG KONG,2026-06-11,https://www.ais.gov.hk/eaip_20260514/2026-06-11-000000/html/eAIP/VH-ENR-4.4-en-US.html,
STELA,STELA,SIGNIFICANT_POINT,HONG KONG FIR,22.1981361111,113.7303083333,CAD HONG KONG,2026-06-11,https://www.ais.gov.hk/eaip_20260514/2026-06-11-000000/html/eAIP/VH-ENR-4.4-en-US.html,
SUDVA,SUDVA,SIGNIFICANT_POINT,HONG KONG FIR,22.0736500000,114.3594083333,CAD HONG KONG,2026-06-11,https://www.ais.gov.hk/eaip_20260514/2026-06-11-000000/html/eAIP/VH-ENR-4.4-en-US.html,
SUGAP,SUGAP,SIGNIFICANT_POINT,HONG KONG FIR,21.9326222222,114.0337888889,CAD HONG KONG,2026-06-11,https://www.ais.gov.hk/eaip_20260514/2026-06-11-000000/html/eAIP/VH-ENR-4.4-en-US.html,
SUKER,SUKER,SIGNIFICANT_POINT,HONG KONG FIR,19.6759666667,114.6532972222,CAD HONG KONG,2026-06-11,https://www.ais.gov.hk/eaip_20260514/2026-06-11-000000/html/eAIP/VH-ENR-4.4-en-US.html,
SUPAD,SUPAD,SIGNIFICANT_POINT,HONG KONG FIR,22.0016638889,114.1252000000,CAD HONG KONG,2026-06-11,https://www.ais.gov.hk/eaip_20260514/2026-06-11-000000/html/eAIP/VH-ENR-4.4-en-US.html,
SURFA,SURFA,SIGNIFICANT_POINT,HONG KONG FIR,19.3141611111,112.7364361111,CAD HONG KONG,2026-06-11,https://www.ais.gov.hk/eaip_20260514/2026-06-11-000000/html/eAIP/VH-ENR-4.4-en-US.html,
TAMOT,TAMOT,SIGNIFICANT_POINT,HONG KONG FIR,22.3583333333,113.8666666667,CAD HONG KONG,2026-06-11,https://www.ais.gov.hk/eaip_20260514/2026-06-11-000000/html/eAIP/VH-ENR-4.4-en-US.html,
TAPPO,TAPPO,SIGNIFICANT_POINT,HONG KONG FIR,21.3223916667,114.2429500000,CAD HONG KONG,2026-06-11,https://www.ais.gov.hk/eaip_20260514/2026-06-11-000000/html/eAIP/VH-ENR-4.4-en-US.html,
TEDUR,TEDUR,SIGNIFICANT_POINT,HONG KONG FIR,22.1885472222,114.3975722222,CAD HONG KONG,2026-06-11,https://www.ais.gov.hk/eaip_20260514/2026-06-11-000000/html/eAIP/VH-ENR-4.4-en-US.html,
TEGUB,TEGUB,SIGNIFICANT_POINT,HONG KONG FIR,22.4050777778,114.0818583333,CAD HONG KONG,2026-06-11,https://www.ais.gov.hk/eaip_20260514/2026-06-11-000000/html/eAIP/VH-ENR-4.4-en-US.html,
TOFEE,TOFEE,SIGNIFICANT_POINT,HONG KONG FIR,19.3061083333,115.2940222222,CAD HONG KONG,2026-06-11,https://www.ais.gov.hk/eaip_20260514/2026-06-11-000000/html/eAIP/VH-ENR-4.4-en-US.html,
TONIC,TONIC,SIGNIFICANT_POINT,HONG KONG FIR,22.2133000000,113.7227361111,CAD HONG KONG,2026-06-11,https://www.ais.gov.hk/eaip_20260514/2026-06-11-000000/html/eAIP/VH-ENR-4.4-en-US.html,
TOPUN,TOPUN,SIGNIFICANT_POINT,HONG KONG FIR,22.3817138889,114.0692083333,CAD HONG KONG,2026-06-11,https://www.ais.gov.hk/eaip_20260514/2026-06-11-000000/html/eAIP/VH-ENR-4.4-en-US.html,
TUBBY,TUBBY,SIGNIFICANT_POINT,HONG KONG FIR,22.5070583333,116.6734583333,CAD HONG KONG,2026-06-11,https://www.ais.gov.hk/eaip_20260514/2026-06-11-000000/html/eAIP/VH-ENR-4.4-en-US.html,
TUTBA,TUTBA,SIGNIFICANT_POINT,HONG KONG FIR,22.2338388889,113.7124777778,CAD HONG KONG,2026-06-11,https://www.ais.gov.hk/eaip_20260514/2026-06-11-000000/html/eAIP/VH-ENR-4.4-en-US.html,
UNTUL,UNTUL,SIGNIFICANT_POINT,HONG KONG FIR,20.3172722222,116.0272527778,CAD HONG KONG,2026-06-11,https://www.ais.gov.hk/eaip_20260514/2026-06-11-000000/html/eAIP/VH-ENR-4.4-en-US.html,
VANPU,VANPU,SIGNIFICANT_POINT,HONG KONG FIR,22.0660972222,113.8010694444,CAD HONG KONG,2026-06-11,https://www.ais.gov.hk/eaip_20260514/2026-06-11-000000/html/eAIP/VH-ENR-4.4-en-US.html,
VEDMU,VEDMU,SIGNIFICANT_POINT,HONG KONG FIR,22.1372277778,113.9189388889,CAD HONG KONG,2026-06-11,https://www.ais.gov.hk/eaip_20260514/2026-06-11-000000/html/eAIP/VH-ENR-4.4-en-US.html,
VEDVO,VEDVO,SIGNIFICANT_POINT,HONG KONG FIR,22.0772750000,114.2619583333,CAD HONG KONG,2026-06-11,https://www.ais.gov.hk/eaip_20260514/2026-06-11-000000/html/eAIP/VH-ENR-4.4-en-US.html,
VEMSO,VEMSO,SIGNIFICANT_POINT,HONG KONG FIR,22.2402944444,114.3145222222,CAD HONG KONG,2026-06-11,https://www.ais.gov.hk/eaip_20260514/2026-06-11-000000/html/eAIP/VH-ENR-4.4-en-US.html,
XEMEK,XEMEK,SIGNIFICANT_POINT,HONG KONG FIR,21.6378250000,114.9952888889,CAD HONG KONG,2026-06-11,https://www.ais.gov.hk/eaip_20260514/2026-06-11-000000/html/eAIP/VH-ENR-4.4-en-US.html,
