ident,name,point_type,region,lat,lon,provider,effective_date,source_url,source_page
ALRAN,ALRAN,SIGNIFICANT_POINT,MAURITIUS FIR,-10.0000000000,56.3733333333,DCAM MAURITIUS,2025-05-15,https://civil-aviation.govmu.org/eAIP/eAIPMauritius/final/2025-05-15-Non-AIRAC/html/eAIP/ENR-4.4-en-GB.html,
AMBAN,AMBAN,SIGNIFICANT_POINT,MAURITIUS FIR,-10.0000000000,55.6483333333,DCAM MAURITIUS,2025-05-15,https://civil-aviation.govmu.org/eAIP/eAIPMauritius/final/2025-05-15-Non-AIRAC/html/eAIP/ENR-4.4-en-GB.html,
AMBOD,AMBOD,SIGNIFICANT_POINT,MAURITIUS FIR,-17.3783333333,55.5000000000,DCAM MAURITIUS,2025-05-15,https://civil-aviation.govmu.org/eAIP/eAIPMauritius/final/2025-05-15-Non-AIRAC/html/eAIP/ENR-4.4-en-GB.html,
APKUD,APKUD,SIGNIFICANT_POINT,MAURITIUS FIR,-6.3669055556,63.1755416667,DCAM MAURITIUS,2025-05-15,https://civil-aviation.govmu.org/eAIP/eAIPMauritius/final/2025-05-15-Non-AIRAC/html/eAIP/ENR-4.4-en-GB.html,
APMER,APMER,SIGNIFICANT_POINT,MAURITIUS FIR,-6.3116333333,62.6962611111,DCAM MAURITIUS,2025-05-15,https://civil-aviation.govmu.org/eAIP/eAIPMauritius/final/2025-05-15-Non-AIRAC/html/eAIP/ENR-4.4-en-GB.html,
APNAB,APNAB,SIGNIFICANT_POINT,MAURITIUS FIR,-6.9759861111,68.8893444444,DCAM MAURITIUS,2025-05-15,https://civil-aviation.govmu.org/eAIP/eAIPMauritius/final/2025-05-15-Non-AIRAC/html/eAIP/ENR-4.4-en-GB.html,
APRAD,APRAD,SIGNIFICANT_POINT,MAURITIUS FIR,-20.4650000000,57.4550000000,DCAM MAURITIUS,2025-05-15,https://civil-aviation.govmu.org/eAIP/eAIPMauritius/final/2025-05-15-Non-AIRAC/html/eAIP/ENR-4.4-en-GB.html,
ATLOP,ATLOP,SIGNIFICANT_POINT,MAURITIUS FIR,-21.4691666667,60.0922222222,DCAM MAURITIUS,2025-05-15,https://civil-aviation.govmu.org/eAIP/eAIPMauritius/final/2025-05-15-Non-AIRAC/html/eAIP/ENR-4.4-en-GB.html,
AXUMO,AXUMO,SIGNIFICANT_POINT,MAURITIUS FIR,-20.2216666667,57.5183333333,DCAM MAURITIUS,2025-05-15,https://civil-aviation.govmu.org/eAIP/eAIPMauritius/final/2025-05-15-Non-AIRAC/html/eAIP/ENR-4.4-en-GB.html,
BIGAR,BIGAR,SIGNIFICANT_POINT,MAURITIUS FIR,-20.3485861111,57.5143361111,DCAM MAURITIUS,2025-05-15,https://civil-aviation.govmu.org/eAIP/eAIPMauritius/final/2025-05-15-Non-AIRAC/html/eAIP/ENR-4.4-en-GB.html,
BIGSA,BIGSA,SIGNIFICANT_POINT,MAURITIUS FIR,-40.2166666667,57.0000000000,DCAM MAURITIUS,2025-05-15,https://civil-aviation.govmu.org/eAIP/eAIPMauritius/final/2025-05-15-Non-AIRAC/html/eAIP/ENR-4.4-en-GB.html,
BOBOD,BOBOD,SIGNIFICANT_POINT,MAURITIUS FIR,-6.0000000000,69.6850000000,DCAM MAURITIUS,2025-05-15,https://civil-aviation.govmu.org/eAIP/eAIPMauritius/final/2025-05-15-Non-AIRAC/html/eAIP/ENR-4.4-en-GB.html,
BUMMR,BUMMR,SIGNIFICANT_POINT,MAURITIUS FIR,-6.0000000000,71.9166666667,DCAM MAURITIUS,2025-05-15,https://civil-aviation.govmu.org/eAIP/eAIPMauritius/final/2025-05-15-Non-AIRAC/html/eAIP/ENR-4.4-en-GB.html,
CPEPT,CPEPT,SIGNIFICANT_POINT,MAURITIUS FIR,-20.3636444444,57.5455111111,DCAM MAURITIUS,2025-05-15,https://civil-aviation.govmu.org/eAIP/eAIPMauritius/final/2025-05-15-Non-AIRAC/html/eAIP/ENR-4.4-en-GB.html,
DUGMA,DUGMA,SIGNIFICANT_POINT,MAURITIUS FIR,-6.9130055556,68.2982722222,DCAM MAURITIUS,2025-05-15,https://civil-aviation.govmu.org/eAIP/eAIPMauritius/final/2025-05-15-Non-AIRAC/html/eAIP/ENR-4.4-en-GB.html,
DUNBU,DUNBU,SIGNIFICANT_POINT,MAURITIUS FIR,-12.0104388889,70.0000000000,DCAM MAURITIUS,2025-05-15,https://civil-aviation.govmu.org/eAIP/eAIPMauritius/final/2025-05-15-Non-AIRAC/html/eAIP/ENR-4.4-en-GB.html,
DUNRI,DUNRI,SIGNIFICANT_POINT,MAURITIUS FIR,-17.9764833333,57.1003638889,DCAM MAURITIUS,2025-05-15,https://civil-aviation.govmu.org/eAIP/eAIPMauritius/final/2025-05-15-Non-AIRAC/html/eAIP/ENR-4.4-en-GB.html,
DUPNA,DUPNA,SIGNIFICANT_POINT,MAURITIUS FIR,-19.8735638889,57.4996861111,DCAM MAURITIUS,2025-05-15,https://civil-aviation.govmu.org/eAIP/eAIPMauritius/final/2025-05-15-Non-AIRAC/html/eAIP/ENR-4.4-en-GB.html,
DURDA,DURDA,SIGNIFICANT_POINT,MAURITIUS FIR,-18.0897722222,56.5889694444,DCAM MAURITIUS,2025-05-15,https://civil-aviation.govmu.org/eAIP/eAIPMauritius/final/2025-05-15-Non-AIRAC/html/eAIP/ENR-4.4-en-GB.html,
EGPOT,EGPOT,SIGNIFICANT_POINT,MAURITIUS FIR,-7.0379916667,69.5302027778,DCAM MAURITIUS,2025-05-15,https://civil-aviation.govmu.org/eAIP/eAIPMauritius/final/2025-05-15-Non-AIRAC/html/eAIP/ENR-4.4-en-GB.html,
EKBAL,EKBAL,SIGNIFICANT_POINT,MAURITIUS FIR,-20.4250305556,57.2583166667,DCAM MAURITIUS,2025-05-15,https://civil-aviation.govmu.org/eAIP/eAIPMauritius/final/2025-05-15-Non-AIRAC/html/eAIP/ENR-4.4-en-GB.html,
ENTEN,ENTEN,SIGNIFICANT_POINT,MAURITIUS FIR,-33.0833333333,65.0000000000,DCAM MAURITIUS,2025-05-15,https://civil-aviation.govmu.org/eAIP/eAIPMauritius/final/2025-05-15-Non-AIRAC/html/eAIP/ENR-4.4-en-GB.html,
EPMOL,EPMOL,SIGNIFICANT_POINT,MAURITIUS FIR,-30.5305555556,65.0000000000,DCAM MAURITIUS,2025-05-15,https://civil-aviation.govmu.org/eAIP/eAIPMauritius/final/2025-05-15-Non-AIRAC/html/eAIP/ENR-4.4-en-GB.html,
EPNES,EPNES,SIGNIFICANT_POINT,MAURITIUS FIR,-20.4500000000,57.7250000000,DCAM MAURITIUS,2025-05-15,https://civil-aviation.govmu.org/eAIP/eAIPMauritius/final/2025-05-15-Non-AIRAC/html/eAIP/ENR-4.4-en-GB.html,
EPNUK,EPNUK,SIGNIFICANT_POINT,MAURITIUS FIR,-20.4751722222,57.7770000000,DCAM MAURITIUS,2025-05-15,https://civil-aviation.govmu.org/eAIP/eAIPMauritius/final/2025-05-15-Non-AIRAC/html/eAIP/ENR-4.4-en-GB.html,
EPSAL,EPSAL,SIGNIFICANT_POINT,MAURITIUS FIR,-20.4766666667,57.4033333333,DCAM MAURITIUS,2025-05-15,https://civil-aviation.govmu.org/eAIP/eAIPMauritius/final/2025-05-15-Non-AIRAC/html/eAIP/ENR-4.4-en-GB.html,
EPSIT,EPSIT,SIGNIFICANT_POINT,MAURITIUS FIR,-19.8069083333,63.0102416667,DCAM MAURITIUS,2025-05-15,https://civil-aviation.govmu.org/eAIP/eAIPMauritius/final/2025-05-15-Non-AIRAC/html/eAIP/ENR-4.4-en-GB.html,
EPSUP,EPSUP,SIGNIFICANT_POINT,MAURITIUS FIR,-20.6366666667,57.4166666667,DCAM MAURITIUS,2025-05-15,https://civil-aviation.govmu.org/eAIP/eAIPMauritius/final/2025-05-15-Non-AIRAC/html/eAIP/ENR-4.4-en-GB.html,
EPTEK,EPTEK,SIGNIFICANT_POINT,MAURITIUS FIR,-20.4216666667,56.1183333333,DCAM MAURITIUS,2025-05-15,https://civil-aviation.govmu.org/eAIP/eAIPMauritius/final/2025-05-15-Non-AIRAC/html/eAIP/ENR-4.4-en-GB.html,
ERBAB,ERBAB,SIGNIFICANT_POINT,MAURITIUS FIR,-20.4583333333,57.7416666667,DCAM MAURITIUS,2025-05-15,https://civil-aviation.govmu.org/eAIP/eAIPMauritius/final/2025-05-15-Non-AIRAC/html/eAIP/ENR-4.4-en-GB.html,
ERBOX,ERBOX,SIGNIFICANT_POINT,MAURITIUS FIR,-20.6103222222,57.7821111111,DCAM MAURITIUS,2025-05-15,https://civil-aviation.govmu.org/eAIP/eAIPMauritius/final/2025-05-15-Non-AIRAC/html/eAIP/ENR-4.4-en-GB.html,
ESTEK,ESTEK,SIGNIFICANT_POINT,MAURITIUS FIR,-20.5192333333,57.8687416667,DCAM MAURITIUS,2025-05-15,https://civil-aviation.govmu.org/eAIP/eAIPMauritius/final/2025-05-15-Non-AIRAC/html/eAIP/ENR-4.4-en-GB.html,
ETGEG,ETGEG,SIGNIFICANT_POINT,MAURITIUS FIR,-15.5190444444,70.0000000000,DCAM MAURITIUS,2025-05-15,https://civil-aviation.govmu.org/eAIP/eAIPMauritius/final/2025-05-15-Non-AIRAC/html/eAIP/ENR-4.4-en-GB.html,
ETGOR,ETGOR,SIGNIFICANT_POINT,MAURITIUS FIR,-20.9333333333,57.0783333333,DCAM MAURITIUS,2025-05-15,https://civil-aviation.govmu.org/eAIP/eAIPMauritius/final/2025-05-15-Non-AIRAC/html/eAIP/ENR-4.4-en-GB.html,
ETKIS,ETKIS,SIGNIFICANT_POINT,MAURITIUS FIR,-20.2783333333,56.5983333333,DCAM MAURITIUS,2025-05-15,https://civil-aviation.govmu.org/eAIP/eAIPMauritius/final/2025-05-15-Non-AIRAC/html/eAIP/ENR-4.4-en-GB.html,
ETLEL,ETLEL,SIGNIFICANT_POINT,MAURITIUS FIR,-12.1132916667,56.0395138889,DCAM MAURITIUS,2025-05-15,https://civil-aviation.govmu.org/eAIP/eAIPMauritius/final/2025-05-15-Non-AIRAC/html/eAIP/ENR-4.4-en-GB.html,
ETLID,ETLID,SIGNIFICANT_POINT,MAURITIUS FIR,-13.8552972222,59.4424388889,DCAM MAURITIUS,2025-05-15,https://civil-aviation.govmu.org/eAIP/eAIPMauritius/final/2025-05-15-Non-AIRAC/html/eAIP/ENR-4.4-en-GB.html,
ETLIV,ETLIV,SIGNIFICANT_POINT,MAURITIUS FIR,-20.3561083333,57.5298555556,DCAM MAURITIUS,2025-05-15,https://civil-aviation.govmu.org/eAIP/eAIPMauritius/final/2025-05-15-Non-AIRAC/html/eAIP/ENR-4.4-en-GB.html,
ETLUM,ETLUM,SIGNIFICANT_POINT,MAURITIUS FIR,-15.0000000000,62.8055555556,DCAM MAURITIUS,2025-05-15,https://civil-aviation.govmu.org/eAIP/eAIPMauritius/final/2025-05-15-Non-AIRAC/html/eAIP/ENR-4.4-en-GB.html,
ETUGA,ETUGA,SIGNIFICANT_POINT,MAURITIUS FIR,-9.6257555556,70.0000000000,DCAM MAURITIUS,2025-05-15,https://civil-aviation.govmu.org/eAIP/eAIPMauritius/final/2025-05-15-Non-AIRAC/html/eAIP/ENR-4.4-en-GB.html,
EVANA,EVANA,SIGNIFICANT_POINT,MAURITIUS FIR,-20.5550000000,57.7083333333,DCAM MAURITIUS,2025-05-15,https://civil-aviation.govmu.org/eAIP/eAIPMauritius/final/2025-05-15-Non-AIRAC/html/eAIP/ENR-4.4-en-GB.html,
EVIXO,EVIXO,SIGNIFICANT_POINT,MAURITIUS FIR,-20.4250000000,57.3250000000,DCAM MAURITIUS,2025-05-15,https://civil-aviation.govmu.org/eAIP/eAIPMauritius/final/2025-05-15-Non-AIRAC/html/eAIP/ENR-4.4-en-GB.html,
EVOTU,EVOTU,SIGNIFICANT_POINT,MAURITIUS FIR,-20.6300000000,57.8066666667,DCAM MAURITIUS,2025-05-15,https://civil-aviation.govmu.org/eAIP/eAIPMauritius/final/2025-05-15-Non-AIRAC/html/eAIP/ENR-4.4-en-GB.html,
EXIPU,EXIPU,SIGNIFICANT_POINT,MAURITIUS FIR,-19.4759777778,60.1101444444,DCAM MAURITIUS,2025-05-15,https://civil-aviation.govmu.org/eAIP/eAIPMauritius/final/2025-05-15-Non-AIRAC/html/eAIP/ENR-4.4-en-GB.html,
FFLAC,FFLAC,SIGNIFICANT_POINT,MAURITIUS FIR,-20.2816111111,57.3717222222,DCAM MAURITIUS,2025-05-15,https://civil-aviation.govmu.org/eAIP/eAIPMauritius/final/2025-05-15-Non-AIRAC/html/eAIP/ENR-4.4-en-GB.html,
GABKI,GABKI,SIGNIFICANT_POINT,MAURITIUS FIR,-20.0100000000,57.6011111111,DCAM MAURITIUS,2025-05-15,https://civil-aviation.govmu.org/eAIP/eAIPMauritius/final/2025-05-15-Non-AIRAC/html/eAIP/ENR-4.4-en-GB.html,
GENOV,GENOV,SIGNIFICANT_POINT,MAURITIUS FIR,-20.5150000000,57.4750000000,DCAM MAURITIUS,2025-05-15,https://civil-aviation.govmu.org/eAIP/eAIPMauritius/final/2025-05-15-Non-AIRAC/html/eAIP/ENR-4.4-en-GB.html,
GEPUG,GEPUG,SIGNIFICANT_POINT,MAURITIUS FIR,-15.0177972222,56.8245833333,DCAM MAURITIUS,2025-05-15,https://civil-aviation.govmu.org/eAIP/eAIPMauritius/final/2025-05-15-Non-AIRAC/html/eAIP/ENR-4.4-en-GB.html,
GERUS,GERUS,SIGNIFICANT_POINT,MAURITIUS FIR,-20.3300000000,57.4750000000,DCAM MAURITIUS,2025-05-15,https://civil-aviation.govmu.org/eAIP/eAIPMauritius/final/2025-05-15-Non-AIRAC/html/eAIP/ENR-4.4-en-GB.html,
GESOD,GESOD,SIGNIFICANT_POINT,MAURITIUS FIR,-10.0000000000,61.6473833333,DCAM MAURITIUS,2025-05-15,https://civil-aviation.govmu.org/eAIP/eAIPMauritius/final/2025-05-15-Non-AIRAC/html/eAIP/ENR-4.4-en-GB.html,
GEVEV,GEVEV,SIGNIFICANT_POINT,MAURITIUS FIR,-20.5333333333,57.9000000000,DCAM MAURITIUS,2025-05-15,https://civil-aviation.govmu.org/eAIP/eAIPMauritius/final/2025-05-15-Non-AIRAC/html/eAIP/ENR-4.4-en-GB.html,
GEXAB,GEXAB,SIGNIFICANT_POINT,MAURITIUS FIR,-10.9827972222,65.5689638889,DCAM MAURITIUS,2025-05-15,https://civil-aviation.govmu.org/eAIP/eAIPMauritius/final/2025-05-15-Non-AIRAC/html/eAIP/ENR-4.4-en-GB.html,
GEXIN,GEXIN,SIGNIFICANT_POINT,MAURITIUS FIR,-9.7214027778,73.0602944444,DCAM MAURITIUS,2025-05-15,https://civil-aviation.govmu.org/eAIP/eAIPMauritius/final/2025-05-15-Non-AIRAC/html/eAIP/ENR-4.4-en-GB.html,
GUDUG,GUDUG,SIGNIFICANT_POINT,MAURITIUS FIR,-7.0766666667,75.0000000000,DCAM MAURITIUS,2025-05-15,https://civil-aviation.govmu.org/eAIP/eAIPMauritius/final/2025-05-15-Non-AIRAC/html/eAIP/ENR-4.4-en-GB.html,
GUGON,GUGON,SIGNIFICANT_POINT,MAURITIUS FIR,-32.5033333333,75.0000000000,DCAM MAURITIUS,2025-05-15,https://civil-aviation.govmu.org/eAIP/eAIPMauritius/final/2025-05-15-Non-AIRAC/html/eAIP/ENR-4.4-en-GB.html,
IBKAN,IBKAN,SIGNIFICANT_POINT,MAURITIUS FIR,-15.5924750000,65.0000000000,DCAM MAURITIUS,2025-05-15,https://civil-aviation.govmu.org/eAIP/eAIPMauritius/final/2025-05-15-Non-AIRAC/html/eAIP/ENR-4.4-en-GB.html,
IBKEM,IBKEM,SIGNIFICANT_POINT,MAURITIUS FIR,-10.0000000000,61.1060750000,DCAM MAURITIUS,2025-05-15,https://civil-aviation.govmu.org/eAIP/eAIPMauritius/final/2025-05-15-Non-AIRAC/html/eAIP/ENR-4.4-en-GB.html,
IBLOG,IBLOG,SIGNIFICANT_POINT,MAURITIUS FIR,-15.0000000000,61.4421861111,DCAM MAURITIUS,2025-05-15,https://civil-aviation.govmu.org/eAIP/eAIPMauritius/final/2025-05-15-Non-AIRAC/html/eAIP/ENR-4.4-en-GB.html,
IBMAT,IBMAT,SIGNIFICANT_POINT,MAURITIUS FIR,-28.3183333333,57.0000000000,DCAM MAURITIUS,2025-05-15,https://civil-aviation.govmu.org/eAIP/eAIPMauritius/final/2025-05-15-Non-AIRAC/html/eAIP/ENR-4.4-en-GB.html,
IBNAV,IBNAV,SIGNIFICANT_POINT,MAURITIUS FIR,-10.4230916667,66.7167694444,DCAM MAURITIUS,2025-05-15,https://civil-aviation.govmu.org/eAIP/eAIPMauritius/final/2025-05-15-Non-AIRAC/html/eAIP/ENR-4.4-en-GB.html,
IBSEB,IBSEB,SIGNIFICANT_POINT,MAURITIUS FIR,-18.6599250000,73.0604444444,DCAM MAURITIUS,2025-05-15,https://civil-aviation.govmu.org/eAIP/eAIPMauritius/final/2025-05-15-Non-AIRAC/html/eAIP/ENR-4.4-en-GB.html,
IBSIS,IBSIS,SIGNIFICANT_POINT,MAURITIUS FIR,-20.7733333333,56.9566666667,DCAM MAURITIUS,2025-05-15,https://civil-aviation.govmu.org/eAIP/eAIPMauritius/final/2025-05-15-Non-AIRAC/html/eAIP/ENR-4.4-en-GB.html,
IBSON,IBSON,SIGNIFICANT_POINT,MAURITIUS FIR,-15.2359000000,56.3226916667,DCAM MAURITIUS,2025-05-15,https://civil-aviation.govmu.org/eAIP/eAIPMauritius/final/2025-05-15-Non-AIRAC/html/eAIP/ENR-4.4-en-GB.html,
IBSUR,IBSUR,SIGNIFICANT_POINT,MAURITIUS FIR,-10.0334222222,70.4499277778,DCAM MAURITIUS,2025-05-15,https://civil-aviation.govmu.org/eAIP/eAIPMauritius/final/2025-05-15-Non-AIRAC/html/eAIP/ENR-4.4-en-GB.html,
IMDOS,IMDOS,SIGNIFICANT_POINT,MAURITIUS FIR,-24.0690861111,72.6668888889,DCAM MAURITIUS,2025-05-15,https://civil-aviation.govmu.org/eAIP/eAIPMauritius/final/2025-05-15-Non-AIRAC/html/eAIP/ENR-4.4-en-GB.html,
IMKOV,IMKOV,SIGNIFICANT_POINT,MAURITIUS FIR,-20.1990888889,57.2779972222,DCAM MAURITIUS,2025-05-15,https://civil-aviation.govmu.org/eAIP/eAIPMauritius/final/2025-05-15-Non-AIRAC/html/eAIP/ENR-4.4-en-GB.html,
IMPAN,IMPAN,SIGNIFICANT_POINT,MAURITIUS FIR,-20.1966527778,60.2875083333,DCAM MAURITIUS,2025-05-15,https://civil-aviation.govmu.org/eAIP/eAIPMauritius/final/2025-05-15-Non-AIRAC/html/eAIP/ENR-4.4-en-GB.html,
IMPUD,IMPUD,SIGNIFICANT_POINT,MAURITIUS FIR,-19.7327416667,58.4036555556,DCAM MAURITIUS,2025-05-15,https://civil-aviation.govmu.org/eAIP/eAIPMauritius/final/2025-05-15-Non-AIRAC/html/eAIP/ENR-4.4-en-GB.html,
IMRUL,IMRUL,SIGNIFICANT_POINT,MAURITIUS FIR,-20.9534055556,60.2571944444,DCAM MAURITIUS,2025-05-15,https://civil-aviation.govmu.org/eAIP/eAIPMauritius/final/2025-05-15-Non-AIRAC/html/eAIP/ENR-4.4-en-GB.html,
IMSEV,IMSEV,SIGNIFICANT_POINT,MAURITIUS FIR,-19.9016138889,65.0000000000,DCAM MAURITIUS,2025-05-15,https://civil-aviation.govmu.org/eAIP/eAIPMauritius/final/2025-05-15-Non-AIRAC/html/eAIP/ENR-4.4-en-GB.html,
IXADU,IXADU,SIGNIFICANT_POINT,MAURITIUS FIR,-22.6140250000,65.0000000000,DCAM MAURITIUS,2025-05-15,https://civil-aviation.govmu.org/eAIP/eAIPMauritius/final/2025-05-15-Non-AIRAC/html/eAIP/ENR-4.4-en-GB.html,
KADEM,KADEM,SIGNIFICANT_POINT,MAURITIUS FIR,-17.8150000000,75.0000000000,DCAM MAURITIUS,2025-05-15,https://civil-aviation.govmu.org/eAIP/eAIPMauritius/final/2025-05-15-Non-AIRAC/html/eAIP/ENR-4.4-en-GB.html,
KALBI,KALBI,SIGNIFICANT_POINT,MAURITIUS FIR,-8.8716666667,75.0000000000,DCAM MAURITIUS,2025-05-15,https://civil-aviation.govmu.org/eAIP/eAIPMauritius/final/2025-05-15-Non-AIRAC/html/eAIP/ENR-4.4-en-GB.html,
KARAT,KARAT,SIGNIFICANT_POINT,MAURITIUS FIR,-17.4719444444,55.5663888889,DCAM MAURITIUS,2025-05-15,https://civil-aviation.govmu.org/eAIP/eAIPMauritius/final/2025-05-15-Non-AIRAC/html/eAIP/ENR-4.4-en-GB.html,
LATEP,LATEP,SIGNIFICANT_POINT,MAURITIUS FIR,-6.1716666667,75.0000000000,DCAM MAURITIUS,2025-05-15,https://civil-aviation.govmu.org/eAIP/eAIPMauritius/final/2025-05-15-Non-AIRAC/html/eAIP/ENR-4.4-en-GB.html,
MODOT,MODOT,SIGNIFICANT_POINT,MAURITIUS FIR,-15.0000000000,55.5938888889,DCAM MAURITIUS,2025-05-15,https://civil-aviation.govmu.org/eAIP/eAIPMauritius/final/2025-05-15-Non-AIRAC/html/eAIP/ENR-4.4-en-GB.html,
MOMMA,MOMMA,SIGNIFICANT_POINT,MAURITIUS FIR,-6.0000000000,72.3500000000,DCAM MAURITIUS,2025-05-15,https://civil-aviation.govmu.org/eAIP/eAIPMauritius/final/2025-05-15-Non-AIRAC/html/eAIP/ENR-4.4-en-GB.html,
MP100,MP100,SIGNIFICANT_POINT,MAURITIUS FIR,-20.3536083333,57.5247111111,DCAM MAURITIUS,2025-05-15,https://civil-aviation.govmu.org/eAIP/eAIPMauritius/final/2025-05-15-Non-AIRAC/html/eAIP/ENR-4.4-en-GB.html,
MP141,MP141,SIGNIFICANT_POINT,MAURITIUS FIR,-20.3554527778,57.3796222222,DCAM MAURITIUS,2025-05-15,https://civil-aviation.govmu.org/eAIP/eAIPMauritius/final/2025-05-15-Non-AIRAC/html/eAIP/ENR-4.4-en-GB.html,
MP142,MP142,SIGNIFICANT_POINT,MAURITIUS FIR,-20.2762000000,57.3939555556,DCAM MAURITIUS,2025-05-15,https://civil-aviation.govmu.org/eAIP/eAIPMauritius/final/2025-05-15-Non-AIRAC/html/eAIP/ENR-4.4-en-GB.html,
MP143,MP143,SIGNIFICANT_POINT,MAURITIUS FIR,-20.2066333333,57.5416805556,DCAM MAURITIUS,2025-05-15,https://civil-aviation.govmu.org/eAIP/eAIPMauritius/final/2025-05-15-Non-AIRAC/html/eAIP/ENR-4.4-en-GB.html,
MP144,MP144,SIGNIFICANT_POINT,MAURITIUS FIR,-20.0458777778,57.6280472222,DCAM MAURITIUS,2025-05-15,https://civil-aviation.govmu.org/eAIP/eAIPMauritius/final/2025-05-15-Non-AIRAC/html/eAIP/ENR-4.4-en-GB.html,
MP146,MP146,SIGNIFICANT_POINT,MAURITIUS FIR,-19.9607861111,57.7025555556,DCAM MAURITIUS,2025-05-15,https://civil-aviation.govmu.org/eAIP/eAIPMauritius/final/2025-05-15-Non-AIRAC/html/eAIP/ENR-4.4-en-GB.html,
MP148,MP148,SIGNIFICANT_POINT,MAURITIUS FIR,-19.3924194444,58.1995472222,DCAM MAURITIUS,2025-05-15,https://civil-aviation.govmu.org/eAIP/eAIPMauritius/final/2025-05-15-Non-AIRAC/html/eAIP/ENR-4.4-en-GB.html,
MP154,MP154,SIGNIFICANT_POINT,MAURITIUS FIR,-20.5272722222,57.1113222222,DCAM MAURITIUS,2025-05-15,https://civil-aviation.govmu.org/eAIP/eAIPMauritius/final/2025-05-15-Non-AIRAC/html/eAIP/ENR-4.4-en-GB.html,
MP156,MP156,SIGNIFICANT_POINT,MAURITIUS FIR,-20.6621555556,56.9168277778,DCAM MAURITIUS,2025-05-15,https://civil-aviation.govmu.org/eAIP/eAIPMauritius/final/2025-05-15-Non-AIRAC/html/eAIP/ENR-4.4-en-GB.html,
MP158,MP158,SIGNIFICANT_POINT,MAURITIUS FIR,-20.4249194444,56.9983555556,DCAM MAURITIUS,2025-05-15,https://civil-aviation.govmu.org/eAIP/eAIPMauritius/final/2025-05-15-Non-AIRAC/html/eAIP/ENR-4.4-en-GB.html,
MP160,MP160,SIGNIFICANT_POINT,MAURITIUS FIR,-20.1701361111,57.6060694444,DCAM MAURITIUS,2025-05-15,https://civil-aviation.govmu.org/eAIP/eAIPMauritius/final/2025-05-15-Non-AIRAC/html/eAIP/ENR-4.4-en-GB.html,
MP161,MP161,SIGNIFICANT_POINT,MAURITIUS FIR,-20.5383333333,57.4266666667,DCAM MAURITIUS,2025-05-15,https://civil-aviation.govmu.org/eAIP/eAIPMauritius/final/2025-05-15-Non-AIRAC/html/eAIP/ENR-4.4-en-GB.html,
MP163,MP163,SIGNIFICANT_POINT,MAURITIUS FIR,-20.3231750000,57.7833194444,DCAM MAURITIUS,2025-05-15,https://civil-aviation.govmu.org/eAIP/eAIPMauritius/final/2025-05-15-Non-AIRAC/html/eAIP/ENR-4.4-en-GB.html,
MP165,MP165,SIGNIFICANT_POINT,MAURITIUS FIR,-20.2005638889,56.7409111111,DCAM MAURITIUS,2025-05-15,https://civil-aviation.govmu.org/eAIP/eAIPMauritius/final/2025-05-15-Non-AIRAC/html/eAIP/ENR-4.4-en-GB.html,
MP167,MP167,SIGNIFICANT_POINT,MAURITIUS FIR,-20.5394833333,57.7153916667,DCAM MAURITIUS,2025-05-15,https://civil-aviation.govmu.org/eAIP/eAIPMauritius/final/2025-05-15-Non-AIRAC/html/eAIP/ENR-4.4-en-GB.html,
MP171,MP171,SIGNIFICANT_POINT,MAURITIUS FIR,-20.5588805556,57.5275277778,DCAM MAURITIUS,2025-05-15,https://civil-aviation.govmu.org/eAIP/eAIPMauritius/final/2025-05-15-Non-AIRAC/html/eAIP/ENR-4.4-en-GB.html,
MP173,MP173,SIGNIFICANT_POINT,MAURITIUS FIR,-20.3733333333,57.8876527778,DCAM MAURITIUS,2025-05-15,https://civil-aviation.govmu.org/eAIP/eAIPMauritius/final/2025-05-15-Non-AIRAC/html/eAIP/ENR-4.4-en-GB.html,
MP174,MP174,SIGNIFICANT_POINT,MAURITIUS FIR,-19.5554666667,57.2260277778,DCAM MAURITIUS,2025-05-15,https://civil-aviation.govmu.org/eAIP/eAIPMauritius/final/2025-05-15-Non-AIRAC/html/eAIP/ENR-4.4-en-GB.html,
MP176,MP176,SIGNIFICANT_POINT,MAURITIUS FIR,-19.3025111111,57.2057277778,DCAM MAURITIUS,2025-05-15,https://civil-aviation.govmu.org/eAIP/eAIPMauritius/final/2025-05-15-Non-AIRAC/html/eAIP/ENR-4.4-en-GB.html,
MP185,MP185,SIGNIFICANT_POINT,MAURITIUS FIR,-18.7883472222,57.5676583333,DCAM MAURITIUS,2025-05-15,https://civil-aviation.govmu.org/eAIP/eAIPMauritius/final/2025-05-15-Non-AIRAC/html/eAIP/ENR-4.4-en-GB.html,
MP187,MP187,SIGNIFICANT_POINT,MAURITIUS FIR,-20.1660611111,58.1811361111,DCAM MAURITIUS,2025-05-15,https://civil-aviation.govmu.org/eAIP/eAIPMauritius/final/2025-05-15-Non-AIRAC/html/eAIP/ENR-4.4-en-GB.html,
MP191,MP191,SIGNIFICANT_POINT,MAURITIUS FIR,-20.6732305556,57.9475416667,DCAM MAURITIUS,2025-05-15,https://civil-aviation.govmu.org/eAIP/eAIPMauritius/final/2025-05-15-Non-AIRAC/html/eAIP/ENR-4.4-en-GB.html,
MP193,MP193,SIGNIFICANT_POINT,MAURITIUS FIR,-20.0763388889,58.2273138889,DCAM MAURITIUS,2025-05-15,https://civil-aviation.govmu.org/eAIP/eAIPMauritius/final/2025-05-15-Non-AIRAC/html/eAIP/ENR-4.4-en-GB.html,
MP202,MP202,SIGNIFICANT_POINT,MAURITIUS FIR,-20.5720944444,58.3008305556,DCAM MAURITIUS,2025-05-15,https://civil-aviation.govmu.org/eAIP/eAIPMauritius/final/2025-05-15-Non-AIRAC/html/eAIP/ENR-4.4-en-GB.html,
MP203,MP203,SIGNIFICANT_POINT,MAURITIUS FIR,-20.2990138889,57.8619694444,DCAM MAURITIUS,2025-05-15,https://civil-aviation.govmu.org/eAIP/eAIPMauritius/final/2025-05-15-Non-AIRAC/html/eAIP/ENR-4.4-en-GB.html,
MP204,MP204,SIGNIFICANT_POINT,MAURITIUS FIR,-20.0385444444,57.7103305556,DCAM MAURITIUS,2025-05-15,https://civil-aviation.govmu.org/eAIP/eAIPMauritius/final/2025-05-15-Non-AIRAC/html/eAIP/ENR-4.4-en-GB.html,
MP205,MP205,SIGNIFICANT_POINT,MAURITIUS FIR,-20.7659500000,58.6827888889,DCAM MAURITIUS,2025-05-15,https://civil-aviation.govmu.org/eAIP/eAIPMauritius/final/2025-05-15-Non-AIRAC/html/eAIP/ENR-4.4-en-GB.html,
MP211,MP211,SIGNIFICANT_POINT,MAURITIUS FIR,-20.6449472222,57.5333805556,DCAM MAURITIUS,2025-05-15,https://civil-aviation.govmu.org/eAIP/eAIPMauritius/final/2025-05-15-Non-AIRAC/html/eAIP/ENR-4.4-en-GB.html,
MP212,MP212,SIGNIFICANT_POINT,MAURITIUS FIR,-20.6184194444,57.4052222222,DCAM MAURITIUS,2025-05-15,https://civil-aviation.govmu.org/eAIP/eAIPMauritius/final/2025-05-15-Non-AIRAC/html/eAIP/ENR-4.4-en-GB.html,
MP214,MP214,SIGNIFICANT_POINT,MAURITIUS FIR,-20.5254527778,57.2638638889,DCAM MAURITIUS,2025-05-15,https://civil-aviation.govmu.org/eAIP/eAIPMauritius/final/2025-05-15-Non-AIRAC/html/eAIP/ENR-4.4-en-GB.html,
MP221,MP221,SIGNIFICANT_POINT,MAURITIUS FIR,-20.9244027778,56.6878111111,DCAM MAURITIUS,2025-05-15,https://civil-aviation.govmu.org/eAIP/eAIPMauritius/final/2025-05-15-Non-AIRAC/html/eAIP/ENR-4.4-en-GB.html,
MP224,MP224,SIGNIFICANT_POINT,MAURITIUS FIR,-20.4747361111,57.1869000000,DCAM MAURITIUS,2025-05-15,https://civil-aviation.govmu.org/eAIP/eAIPMauritius/final/2025-05-15-Non-AIRAC/html/eAIP/ENR-4.4-en-GB.html,
MP234,MP234,SIGNIFICANT_POINT,MAURITIUS FIR,-20.3412805556,57.0330388889,DCAM MAURITIUS,2025-05-15,https://civil-aviation.govmu.org/eAIP/eAIPMauritius/final/2025-05-15-Non-AIRAC/html/eAIP/ENR-4.4-en-GB.html,
MP244,MP244,SIGNIFICANT_POINT,MAURITIUS FIR,-20.2835361111,56.9665972222,DCAM MAURITIUS,2025-05-15,https://civil-aviation.govmu.org/eAIP/eAIPMauritius/final/2025-05-15-Non-AIRAC/html/eAIP/ENR-4.4-en-GB.html,
MP500,MP500,SIGNIFICANT_POINT,MAURITIUS FIR,-20.4071388889,57.9293000000,DCAM MAURITIUS,2025-05-15,https://civil-aviation.govmu.org/eAIP/eAIPMauritius/final/2025-05-15-Non-AIRAC/html/eAIP/ENR-4.4-en-GB.html,
MP501,MP501,SIGNIFICANT_POINT,MAURITIUS FIR,-20.5932305556,57.8272833333,DCAM MAURITIUS,2025-05-15,https://civil-aviation.govmu.org/eAIP/eAIPMauritius/final/2025-05-15-Non-AIRAC/html/eAIP/ENR-4.4-en-GB.html,
MP503,MP503,SIGNIFICANT_POINT,MAURITIUS FIR,-20.3265888889,57.9727555556,DCAM MAURITIUS,2025-05-15,https://civil-aviation.govmu.org/eAIP/eAIPMauritius/final/2025-05-15-Non-AIRAC/html/eAIP/ENR-4.4-en-GB.html,
MP530,MP530,SIGNIFICANT_POINT,MAURITIUS FIR,-20.4219611111,57.6666027778,DCAM MAURITIUS,2025-05-15,https://civil-aviation.govmu.org/eAIP/eAIPMauritius/final/2025-05-15-Non-AIRAC/html/eAIP/ENR-4.4-en-GB.html,
MP531,MP531,SIGNIFICANT_POINT,MAURITIUS FIR,-20.4946805556,57.6198388889,DCAM MAURITIUS,2025-05-15,https://civil-aviation.govmu.org/eAIP/eAIPMauritius/final/2025-05-15-Non-AIRAC/html/eAIP/ENR-4.4-en-GB.html,
MP551,MP551,SIGNIFICANT_POINT,MAURITIUS FIR,-20.3615194444,57.3408000000,DCAM MAURITIUS,2025-05-15,https://civil-aviation.govmu.org/eAIP/eAIPMauritius/final/2025-05-15-Non-AIRAC/html/eAIP/ENR-4.4-en-GB.html,
MP600,MP600,SIGNIFICANT_POINT,MAURITIUS FIR,-20.2831138889,57.4043638889,DCAM MAURITIUS,2025-05-15,https://civil-aviation.govmu.org/eAIP/eAIPMauritius/final/2025-05-15-Non-AIRAC/html/eAIP/ENR-4.4-en-GB.html,
MP601,MP601,SIGNIFICANT_POINT,MAURITIUS FIR,-20.2833055556,57.3105416667,DCAM MAURITIUS,2025-05-15,https://civil-aviation.govmu.org/eAIP/eAIPMauritius/final/2025-05-15-Non-AIRAC/html/eAIP/ENR-4.4-en-GB.html,
MP602,MP602,SIGNIFICANT_POINT,MAURITIUS FIR,-20.4418250000,57.5089111111,DCAM MAURITIUS,2025-05-15,https://civil-aviation.govmu.org/eAIP/eAIPMauritius/final/2025-05-15-Non-AIRAC/html/eAIP/ENR-4.4-en-GB.html,
MP603,MP603,SIGNIFICANT_POINT,MAURITIUS FIR,-20.4691305556,57.3880444444,DCAM MAURITIUS,2025-05-15,https://civil-aviation.govmu.org/eAIP/eAIPMauritius/final/2025-05-15-Non-AIRAC/html/eAIP/ENR-4.4-en-GB.html,
MP604,MP604,SIGNIFICANT_POINT,MAURITIUS FIR,-20.5520750000,57.5464000000,DCAM MAURITIUS,2025-05-15,https://civil-aviation.govmu.org/eAIP/eAIPMauritius/final/2025-05-15-Non-AIRAC/html/eAIP/ENR-4.4-en-GB.html,
MP605,MP605,SIGNIFICANT_POINT,MAURITIUS FIR,-20.3828555556,57.7873027778,DCAM MAURITIUS,2025-05-15,https://civil-aviation.govmu.org/eAIP/eAIPMauritius/final/2025-05-15-Non-AIRAC/html/eAIP/ENR-4.4-en-GB.html,
MP606,MP606,SIGNIFICANT_POINT,MAURITIUS FIR,-20.2984750000,57.7956194444,DCAM MAURITIUS,2025-05-15,https://civil-aviation.govmu.org/eAIP/eAIPMauritius/final/2025-05-15-Non-AIRAC/html/eAIP/ENR-4.4-en-GB.html,
MP608,MP608,SIGNIFICANT_POINT,MAURITIUS FIR,-20.2839500000,57.2169111111,DCAM MAURITIUS,2025-05-15,https://civil-aviation.govmu.org/eAIP/eAIPMauritius/final/2025-05-15-Non-AIRAC/html/eAIP/ENR-4.4-en-GB.html,
MP609,MP609,SIGNIFICANT_POINT,MAURITIUS FIR,-20.2849694444,56.1883638889,DCAM MAURITIUS,2025-05-15,https://civil-aviation.govmu.org/eAIP/eAIPMauritius/final/2025-05-15-Non-AIRAC/html/eAIP/ENR-4.4-en-GB.html,
MP611,MP611,SIGNIFICANT_POINT,MAURITIUS FIR,-20.1151666667,57.1516222222,DCAM MAURITIUS,2025-05-15,https://civil-aviation.govmu.org/eAIP/eAIPMauritius/final/2025-05-15-Non-AIRAC/html/eAIP/ENR-4.4-en-GB.html,
MP612,MP612,SIGNIFICANT_POINT,MAURITIUS FIR,-20.4985000000,57.2575611111,DCAM MAURITIUS,2025-05-15,https://civil-aviation.govmu.org/eAIP/eAIPMauritius/final/2025-05-15-Non-AIRAC/html/eAIP/ENR-4.4-en-GB.html,
MP614,MP614,SIGNIFICANT_POINT,MAURITIUS FIR,-20.5871138889,57.6191361111,DCAM MAURITIUS,2025-05-15,https://civil-aviation.govmu.org/eAIP/eAIPMauritius/final/2025-05-15-Non-AIRAC/html/eAIP/ENR-4.4-en-GB.html,
MP621,MP621,SIGNIFICANT_POINT,MAURITIUS FIR,-19.9465472222,56.8985250000,DCAM MAURITIUS,2025-05-15,https://civil-aviation.govmu.org/eAIP/eAIPMauritius/final/2025-05-15-Non-AIRAC/html/eAIP/ENR-4.4-en-GB.html,
MP624,MP624,SIGNIFICANT_POINT,MAURITIUS FIR,-20.6672166667,57.7857888889,DCAM MAURITIUS,2025-05-15,https://civil-aviation.govmu.org/eAIP/eAIPMauritius/final/2025-05-15-Non-AIRAC/html/eAIP/ENR-4.4-en-GB.html,
MP626,MP626,SIGNIFICANT_POINT,MAURITIUS FIR,-20.1372333333,58.4115527778,DCAM MAURITIUS,2025-05-15,https://civil-aviation.govmu.org/eAIP/eAIPMauritius/final/2025-05-15-Non-AIRAC/html/eAIP/ENR-4.4-en-GB.html,
MP634,MP634,SIGNIFICANT_POINT,MAURITIUS FIR,-20.6762638889,58.0578527778,DCAM MAURITIUS,2025-05-15,https://civil-aviation.govmu.org/eAIP/eAIPMauritius/final/2025-05-15-Non-AIRAC/html/eAIP/ENR-4.4-en-GB.html,
MP635,MP635,SIGNIFICANT_POINT,MAURITIUS FIR,-20.4311583333,58.0704833333,DCAM MAURITIUS,2025-05-15,https://civil-aviation.govmu.org/eAIP/eAIPMauritius/final/2025-05-15-Non-AIRAC/html/eAIP/ENR-4.4-en-GB.html,
MP645,MP645,SIGNIFICANT_POINT,MAURITIUS FIR,-20.6359972222,58.4918638889,DCAM MAURITIUS,2025-05-15,https://civil-aviation.govmu.org/eAIP/eAIPMauritius/final/2025-05-15-Non-AIRAC/html/eAIP/ENR-4.4-en-GB.html,
MP700,MP700,SIGNIFICANT_POINT,MAURITIUS FIR,-20.3496083333,60.0157916667,DCAM MAURITIUS,2025-05-15,https://civil-aviation.govmu.org/eAIP/eAIPMauritius/final/2025-05-15-Non-AIRAC/html/eAIP/ENR-4.4-en-GB.html,
MP706,MP706,SIGNIFICANT_POINT,MAURITIUS FIR,-20.4865055556,59.7715972222,DCAM MAURITIUS,2025-05-15,https://civil-aviation.govmu.org/eAIP/eAIPMauritius/final/2025-05-15-Non-AIRAC/html/eAIP/ENR-4.4-en-GB.html,
MP888,MP888,SIGNIFICANT_POINT,MAURITIUS FIR,-20.2610138889,57.4481083333,DCAM MAURITIUS,2025-05-15,https://civil-aviation.govmu.org/eAIP/eAIPMauritius/final/2025-05-15-Non-AIRAC/html/eAIP/ENR-4.4-en-GB.html,
MP889,MP889,SIGNIFICANT_POINT,MAURITIUS FIR,-20.3255805556,57.4667250000,DCAM MAURITIUS,2025-05-15,https://civil-aviation.govmu.org/eAIP/eAIPMauritius/final/2025-05-15-Non-AIRAC/html/eAIP/ENR-4.4-en-GB.html,
MURUS,MURUS,SIGNIFICANT_POINT,MAURITIUS FIR,-6.0000000000,63.3283333333,DCAM MAURITIUS,2025-05-15,https://civil-aviation.govmu.org/eAIP/eAIPMauritius/final/2025-05-15-Non-AIRAC/html/eAIP/ENR-4.4-en-GB.html,
NEPUG,NEPUG,SIGNIFICANT_POINT,MAURITIUS FIR,-12.6421305556,70.0000000000,DCAM MAURITIUS,2025-05-15,https://civil-aviation.govmu.org/eAIP/eAIPMauritius/final/2025-05-15-Non-AIRAC/html/eAIP/ENR-4.4-en-GB.html,
NEXAV,NEXAV,SIGNIFICANT_POINT,MAURITIUS FIR,-17.6029750000,65.0000000000,DCAM MAURITIUS,2025-05-15,https://civil-aviation.govmu.org/eAIP/eAIPMauritius/final/2025-05-15-Non-AIRAC/html/eAIP/ENR-4.4-en-GB.html,
NIBED,NIBED,SIGNIFICANT_POINT,MAURITIUS FIR,-14.9219111111,65.0000000000,DCAM MAURITIUS,2025-05-15,https://civil-aviation.govmu.org/eAIP/eAIPMauritius/final/2025-05-15-Non-AIRAC/html/eAIP/ENR-4.4-en-GB.html,
NIBIS,NIBIS,SIGNIFICANT_POINT,MAURITIUS FIR,-19.0350000000,55.5483333333,DCAM MAURITIUS,2025-05-15,https://civil-aviation.govmu.org/eAIP/eAIPMauritius/final/2025-05-15-Non-AIRAC/html/eAIP/ENR-4.4-en-GB.html,
NIDIT,NIDIT,SIGNIFICANT_POINT,MAURITIUS FIR,-15.0000000000,62.1153055556,DCAM MAURITIUS,2025-05-15,https://civil-aviation.govmu.org/eAIP/eAIPMauritius/final/2025-05-15-Non-AIRAC/html/eAIP/ENR-4.4-en-GB.html,
NKW,NKW,SIGNIFICANT_POINT,MAURITIUS FIR,-7.3166666667,72.4116666667,DCAM MAURITIUS,2025-05-15,https://civil-aviation.govmu.org/eAIP/eAIPMauritius/final/2025-05-15-Non-AIRAC/html/eAIP/ENR-4.4-en-GB.html,
OKBOG,OKBOG,SIGNIFICANT_POINT,MAURITIUS FIR,-18.3332361111,59.1140805556,DCAM MAURITIUS,2025-05-15,https://civil-aviation.govmu.org/eAIP/eAIPMauritius/final/2025-05-15-Non-AIRAC/html/eAIP/ENR-4.4-en-GB.html,
OKDEP,OKDEP,SIGNIFICANT_POINT,MAURITIUS FIR,-16.0684833333,70.0000000000,DCAM MAURITIUS,2025-05-15,https://civil-aviation.govmu.org/eAIP/eAIPMauritius/final/2025-05-15-Non-AIRAC/html/eAIP/ENR-4.4-en-GB.html,
OKMAR,OKMAR,SIGNIFICANT_POINT,MAURITIUS FIR,-18.2016666667,56.0769444444,DCAM MAURITIUS,2025-05-15,https://civil-aviation.govmu.org/eAIP/eAIPMauritius/final/2025-05-15-Non-AIRAC/html/eAIP/ENR-4.4-en-GB.html,
OKMIN,OKMIN,SIGNIFICANT_POINT,MAURITIUS FIR,-20.3014111111,58.1113638889,DCAM MAURITIUS,2025-05-15,https://civil-aviation.govmu.org/eAIP/eAIPMauritius/final/2025-05-15-Non-AIRAC/html/eAIP/ENR-4.4-en-GB.html,
OKNEP,OKNEP,SIGNIFICANT_POINT,MAURITIUS FIR,-23.0778472222,70.0000000000,DCAM MAURITIUS,2025-05-15,https://civil-aviation.govmu.org/eAIP/eAIPMauritius/final/2025-05-15-Non-AIRAC/html/eAIP/ENR-4.4-en-GB.html,
OKROS,OKROS,SIGNIFICANT_POINT,MAURITIUS FIR,-20.4549250000,60.3137444444,DCAM MAURITIUS,2025-05-15,https://civil-aviation.govmu.org/eAIP/eAIPMauritius/final/2025-05-15-Non-AIRAC/html/eAIP/ENR-4.4-en-GB.html,
OKSIT,OKSIT,SIGNIFICANT_POINT,MAURITIUS FIR,-20.5566666667,57.5066666667,DCAM MAURITIUS,2025-05-15,https://civil-aviation.govmu.org/eAIP/eAIPMauritius/final/2025-05-15-Non-AIRAC/html/eAIP/ENR-4.4-en-GB.html,
OKTAL,OKTAL,SIGNIFICANT_POINT,MAURITIUS FIR,-20.5700000000,57.3650000000,DCAM MAURITIUS,2025-05-15,https://civil-aviation.govmu.org/eAIP/eAIPMauritius/final/2025-05-15-Non-AIRAC/html/eAIP/ENR-4.4-en-GB.html,
OSKAR,OSKAR,SIGNIFICANT_POINT,MAURITIUS FIR,-20.3900000000,57.8216666667,DCAM MAURITIUS,2025-05-15,https://civil-aviation.govmu.org/eAIP/eAIPMauritius/final/2025-05-15-Non-AIRAC/html/eAIP/ENR-4.4-en-GB.html,
PASAR,PASAR,SIGNIFICANT_POINT,MAURITIUS FIR,-21.0183333333,56.4000000000,DCAM MAURITIUS,2025-05-15,https://civil-aviation.govmu.org/eAIP/eAIPMauritius/final/2025-05-15-Non-AIRAC/html/eAIP/ENR-4.4-en-GB.html,
PEDPI,PEDPI,SIGNIFICANT_POINT,MAURITIUS FIR,-13.2766666667,75.0000000000,DCAM MAURITIUS,2025-05-15,https://civil-aviation.govmu.org/eAIP/eAIPMauritius/final/2025-05-15-Non-AIRAC/html/eAIP/ENR-4.4-en-GB.html,
PERRY,PERRY,SIGNIFICANT_POINT,MAURITIUS FIR,-6.0000000000,60.0000000000,DCAM MAURITIUS,2025-05-15,https://civil-aviation.govmu.org/eAIP/eAIPMauritius/final/2025-05-15-Non-AIRAC/html/eAIP/ENR-4.4-en-GB.html,
RASMA,RASMA,SIGNIFICANT_POINT,MAURITIUS FIR,-20.2000000000,56.0333333333,DCAM MAURITIUS,2025-05-15,https://civil-aviation.govmu.org/eAIP/eAIPMauritius/final/2025-05-15-Non-AIRAC/html/eAIP/ENR-4.4-en-GB.html,
RAXES,RAXES,SIGNIFICANT_POINT,MAURITIUS FIR,-36.4333333333,57.0000000000,DCAM MAURITIUS,2025-05-15,https://civil-aviation.govmu.org/eAIP/eAIPMauritius/final/2025-05-15-Non-AIRAC/html/eAIP/ENR-4.4-en-GB.html,
RERAB,RERAB,SIGNIFICANT_POINT,MAURITIUS FIR,-43.0000000000,75.0000000000,DCAM MAURITIUS,2025-05-15,https://civil-aviation.govmu.org/eAIP/eAIPMauritius/final/2025-05-15-Non-AIRAC/html/eAIP/ENR-4.4-en-GB.html,
RUPIG,RUPIG,SIGNIFICANT_POINT,MAURITIUS FIR,-15.5900000000,55.5000000000,DCAM MAURITIUS,2025-05-15,https://civil-aviation.govmu.org/eAIP/eAIPMauritius/final/2025-05-15-Non-AIRAC/html/eAIP/ENR-4.4-en-GB.html,
RW14,RW14,SIGNIFICANT_POINT,MAURITIUS FIR,-20.4246611111,57.6720194444,DCAM MAURITIUS,2025-05-15,https://civil-aviation.govmu.org/eAIP/eAIPMauritius/final/2025-05-15-Non-AIRAC/html/eAIP/ENR-4.4-en-GB.html,
RW32,RW32,SIGNIFICANT_POINT,MAURITIUS FIR,-20.4371500000,57.6979527778,DCAM MAURITIUS,2025-05-15,https://civil-aviation.govmu.org/eAIP/eAIPMauritius/final/2025-05-15-Non-AIRAC/html/eAIP/ENR-4.4-en-GB.html,
SOBAT,SOBAT,SIGNIFICANT_POINT,MAURITIUS FIR,-20.7183333333,56.2650000000,DCAM MAURITIUS,2025-05-15,https://civil-aviation.govmu.org/eAIP/eAIPMauritius/final/2025-05-15-Non-AIRAC/html/eAIP/ENR-4.4-en-GB.html,
SOLIT,SOLIT,SIGNIFICANT_POINT,MAURITIUS FIR,-23.9166666667,75.0000000000,DCAM MAURITIUS,2025-05-15,https://civil-aviation.govmu.org/eAIP/eAIPMauritius/final/2025-05-15-Non-AIRAC/html/eAIP/ENR-4.4-en-GB.html,
SUNKI,SUNKI,SIGNIFICANT_POINT,MAURITIUS FIR,-38.3116666667,75.0000000000,DCAM MAURITIUS,2025-05-15,https://civil-aviation.govmu.org/eAIP/eAIPMauritius/final/2025-05-15-Non-AIRAC/html/eAIP/ENR-4.4-en-GB.html,
TEVOD,TEVOD,SIGNIFICANT_POINT,MAURITIUS FIR,-18.6484250000,59.5233000000,DCAM MAURITIUS,2025-05-15,https://civil-aviation.govmu.org/eAIP/eAIPMauritius/final/2025-05-15-Non-AIRAC/html/eAIP/ENR-4.4-en-GB.html,
TIBAG,TIBAG,SIGNIFICANT_POINT,MAURITIUS FIR,-18.4850000000,55.5547222222,DCAM MAURITIUS,2025-05-15,https://civil-aviation.govmu.org/eAIP/eAIPMauritius/final/2025-05-15-Non-AIRAC/html/eAIP/ENR-4.4-en-GB.html,
TIDUM,TIDUM,SIGNIFICANT_POINT,MAURITIUS FIR,-17.9192111111,57.6216055556,DCAM MAURITIUS,2025-05-15,https://civil-aviation.govmu.org/eAIP/eAIPMauritius/final/2025-05-15-Non-AIRAC/html/eAIP/ENR-4.4-en-GB.html,
TIGUD,TIGUD,SIGNIFICANT_POINT,MAURITIUS FIR,-23.6092333333,70.0000000000,DCAM MAURITIUS,2025-05-15,https://civil-aviation.govmu.org/eAIP/eAIPMauritius/final/2025-05-15-Non-AIRAC/html/eAIP/ENR-4.4-en-GB.html,
TIKIN,TIKIN,SIGNIFICANT_POINT,MAURITIUS FIR,-19.4022444444,65.0000000000,DCAM MAURITIUS,2025-05-15,https://civil-aviation.govmu.org/eAIP/eAIPMauritius/final/2025-05-15-Non-AIRAC/html/eAIP/ENR-4.4-en-GB.html,
TIKOL,TIKOL,SIGNIFICANT_POINT,MAURITIUS FIR,-18.1011722222,58.6483666667,DCAM MAURITIUS,2025-05-15,https://civil-aviation.govmu.org/eAIP/eAIPMauritius/final/2025-05-15-Non-AIRAC/html/eAIP/ENR-4.4-en-GB.html,
UDKIP,UDKIP,SIGNIFICANT_POINT,MAURITIUS FIR,-11.5246361111,64.4450277778,DCAM MAURITIUS,2025-05-15,https://civil-aviation.govmu.org/eAIP/eAIPMauritius/final/2025-05-15-Non-AIRAC/html/eAIP/ENR-4.4-en-GB.html,
UMVER,UMVER,SIGNIFICANT_POINT,MAURITIUS FIR,-18.6789111111,70.0000000000,DCAM MAURITIUS,2025-05-15,https://civil-aviation.govmu.org/eAIP/eAIPMauritius/final/2025-05-15-Non-AIRAC/html/eAIP/ENR-4.4-en-GB.html,
UNLAN,UNLAN,SIGNIFICANT_POINT,MAURITIUS FIR,-19.1755083333,70.0000000000,DCAM MAURITIUS,2025-05-15,https://civil-aviation.govmu.org/eAIP/eAIPMauritius/final/2025-05-15-Non-AIRAC/html/eAIP/ENR-4.4-en-GB.html,
UNPAP,UNPAP,SIGNIFICANT_POINT,MAURITIUS FIR,-13.5484861111,60.1184805556,DCAM MAURITIUS,2025-05-15,https://civil-aviation.govmu.org/eAIP/eAIPMauritius/final/2025-05-15-Non-AIRAC/html/eAIP/ENR-4.4-en-GB.html,
UNPUG,UNPUG,SIGNIFICANT_POINT,MAURITIUS FIR,-17.9613305556,58.1443527778,DCAM MAURITIUS,2025-05-15,https://civil-aviation.govmu.org/eAIP/eAIPMauritius/final/2025-05-15-Non-AIRAC/html/eAIP/ENR-4.4-en-GB.html,
UPNEK,UPNEK,SIGNIFICANT_POINT,MAURITIUS FIR,-37.6191666667,65.0000000000,DCAM MAURITIUS,2025-05-15,https://civil-aviation.govmu.org/eAIP/eAIPMauritius/final/2025-05-15-Non-AIRAC/html/eAIP/ENR-4.4-en-GB.html,
UPTOM,UPTOM,SIGNIFICANT_POINT,MAURITIUS FIR,-41.8350000000,65.0000000000,DCAM MAURITIUS,2025-05-15,https://civil-aviation.govmu.org/eAIP/eAIPMauritius/final/2025-05-15-Non-AIRAC/html/eAIP/ENR-4.4-en-GB.html,
USUBO,USUBO,SIGNIFICANT_POINT,MAURITIUS FIR,-8.6490916667,70.0000000000,DCAM MAURITIUS,2025-05-15,https://civil-aviation.govmu.org/eAIP/eAIPMauritius/final/2025-05-15-Non-AIRAC/html/eAIP/ENR-4.4-en-GB.html,
UTIBU,UTIBU,SIGNIFICANT_POINT,MAURITIUS FIR,-6.2843750000,74.8762250000,DCAM MAURITIUS,2025-05-15,https://civil-aviation.govmu.org/eAIP/eAIPMauritius/final/2025-05-15-Non-AIRAC/html/eAIP/ENR-4.4-en-GB.html,
UTROD,UTROD,SIGNIFICANT_POINT,MAURITIUS FIR,-19.9558194444,60.2637388889,DCAM MAURITIUS,2025-05-15,https://civil-aviation.govmu.org/eAIP/eAIPMauritius/final/2025-05-15-Non-AIRAC/html/eAIP/ENR-4.4-en-GB.html,
UTRUP,UTRUP,SIGNIFICANT_POINT,MAURITIUS FIR,-20.1988750000,57.9157833333,DCAM MAURITIUS,2025-05-15,https://civil-aviation.govmu.org/eAIP/eAIPMauritius/final/2025-05-15-Non-AIRAC/html/eAIP/ENR-4.4-en-GB.html,
UTSOV,UTSOV,SIGNIFICANT_POINT,MAURITIUS FIR,-22.0680972222,65.0000000000,DCAM MAURITIUS,2025-05-15,https://civil-aviation.govmu.org/eAIP/eAIPMauritius/final/2025-05-15-Non-AIRAC/html/eAIP/ENR-4.4-en-GB.html,
UVARI,UVARI,SIGNIFICANT_POINT,MAURITIUS FIR,-19.0343861111,59.8598472222,DCAM MAURITIUS,2025-05-15,https://civil-aviation.govmu.org/eAIP/eAIPMauritius/final/2025-05-15-Non-AIRAC/html/eAIP/ENR-4.4-en-GB.html,
UVDAG,UVDAG,SIGNIFICANT_POINT,MAURITIUS FIR,-20.1812194444,58.0510583333,DCAM MAURITIUS,2025-05-15,https://civil-aviation.govmu.org/eAIP/eAIPMauritius/final/2025-05-15-Non-AIRAC/html/eAIP/ENR-4.4-en-GB.html,
UVLAG,UVLAG,SIGNIFICANT_POINT,MAURITIUS FIR,-16.2135611111,65.0000000000,DCAM MAURITIUS,2025-05-15,https://civil-aviation.govmu.org/eAIP/eAIPMauritius/final/2025-05-15-Non-AIRAC/html/eAIP/ENR-4.4-en-GB.html,
UVUBI,UVUBI,SIGNIFICANT_POINT,MAURITIUS FIR,-14.9986555556,72.4285750000,DCAM MAURITIUS,2025-05-15,https://civil-aviation.govmu.org/eAIP/eAIPMauritius/final/2025-05-15-Non-AIRAC/html/eAIP/ENR-4.4-en-GB.html,
XAGUN,XAGUN,SIGNIFICANT_POINT,MAURITIUS FIR,-14.2499083333,65.0000000000,DCAM MAURITIUS,2025-05-15,https://civil-aviation.govmu.org/eAIP/eAIPMauritius/final/2025-05-15-Non-AIRAC/html/eAIP/ENR-4.4-en-GB.html,
XAKEL,XAKEL,SIGNIFICANT_POINT,MAURITIUS FIR,-19.5014888889,58.5218944444,DCAM MAURITIUS,2025-05-15,https://civil-aviation.govmu.org/eAIP/eAIPMauritius/final/2025-05-15-Non-AIRAC/html/eAIP/ENR-4.4-en-GB.html,
XAKUV,XAKUV,SIGNIFICANT_POINT,MAURITIUS FIR,-15.5524250000,55.5877722222,DCAM MAURITIUS,2025-05-15,https://civil-aviation.govmu.org/eAIP/eAIPMauritius/final/2025-05-15-Non-AIRAC/html/eAIP/ENR-4.4-en-GB.html,
XEKOT,XEKOT,SIGNIFICANT_POINT,MAURITIUS FIR,-32.9700000000,57.0000000000,DCAM MAURITIUS,2025-05-15,https://civil-aviation.govmu.org/eAIP/eAIPMauritius/final/2025-05-15-Non-AIRAC/html/eAIP/ENR-4.4-en-GB.html,
XORUG,XORUG,SIGNIFICANT_POINT,MAURITIUS FIR,-18.1477166667,65.0000000000,DCAM MAURITIUS,2025-05-15,https://civil-aviation.govmu.org/eAIP/eAIPMauritius/final/2025-05-15-Non-AIRAC/html/eAIP/ENR-4.4-en-GB.html,
