ident,name,point_type,region,lat,lon,provider,effective_date,source_url,source_page
ABALO,ABALO,SIGNIFICANT_POINT,PORTUGAL / LPPC-LPPO FIR,32.3311111111,-18.1302777778,NAV PORTUGAL,2026-06-11,https://ais.nav.pt/wp-content/uploads/AIS_Files/eAIP_Current/eAIP_Online/eAIP/html/eAIP/LP-ENR-4.4-en-PT.html,
ABETO,ABETO,SIGNIFICANT_POINT,PORTUGAL / LPPC-LPPO FIR,40.4297222222,-8.0563888889,NAV PORTUGAL,2026-06-11,https://ais.nav.pt/wp-content/uploads/AIS_Files/eAIP_Current/eAIP_Online/eAIP/html/eAIP/LP-ENR-4.4-en-PT.html,
ABLEG,ABLEG,SIGNIFICANT_POINT,PORTUGAL / LPPC-LPPO FIR,40.7227777778,-8.4311111111,NAV PORTUGAL,2026-06-11,https://ais.nav.pt/wp-content/uploads/AIS_Files/eAIP_Current/eAIP_Online/eAIP/html/eAIP/LP-ENR-4.4-en-PT.html,
ABONU,ABONU,SIGNIFICANT_POINT,PORTUGAL / LPPC-LPPO FIR,38.5975000000,-28.0072222222,NAV PORTUGAL,2026-06-11,https://ais.nav.pt/wp-content/uploads/AIS_Files/eAIP_Current/eAIP_Online/eAIP/html/eAIP/LP-ENR-4.4-en-PT.html,
ABRAT,ABRAT,SIGNIFICANT_POINT,PORTUGAL / LPPC-LPPO FIR,39.8216666667,-7.6541666667,NAV PORTUGAL,2026-06-11,https://ais.nav.pt/wp-content/uploads/AIS_Files/eAIP_Current/eAIP_Online/eAIP/html/eAIP/LP-ENR-4.4-en-PT.html,
ABRIL,ABRIL,SIGNIFICANT_POINT,PORTUGAL / LPPC-LPPO FIR,40.3961111111,-8.5802777778,NAV PORTUGAL,2026-06-11,https://ais.nav.pt/wp-content/uploads/AIS_Files/eAIP_Current/eAIP_Online/eAIP/html/eAIP/LP-ENR-4.4-en-PT.html,
ABUPI,ABUPI,SIGNIFICANT_POINT,PORTUGAL / LPPC-LPPO FIR,41.7511111111,-7.2361111111,NAV PORTUGAL,2026-06-11,https://ais.nav.pt/wp-content/uploads/AIS_Files/eAIP_Current/eAIP_Online/eAIP/html/eAIP/LP-ENR-4.4-en-PT.html,
ABUSU,ABUSU,SIGNIFICANT_POINT,PORTUGAL / LPPC-LPPO FIR,32.8669444444,-16.6355555556,NAV PORTUGAL,2026-06-11,https://ais.nav.pt/wp-content/uploads/AIS_Files/eAIP_Current/eAIP_Online/eAIP/html/eAIP/LP-ENR-4.4-en-PT.html,
ADILI,ADILI,SIGNIFICANT_POINT,PORTUGAL / LPPC-LPPO FIR,35.9666666667,-9.5727777778,NAV PORTUGAL,2026-06-11,https://ais.nav.pt/wp-content/uploads/AIS_Files/eAIP_Current/eAIP_Online/eAIP/html/eAIP/LP-ENR-4.4-en-PT.html,
ADINO,ADINO,SIGNIFICANT_POINT,PORTUGAL / LPPC-LPPO FIR,40.0177777778,-6.3736111111,NAV PORTUGAL,2026-06-11,https://ais.nav.pt/wp-content/uploads/AIS_Files/eAIP_Current/eAIP_Online/eAIP/html/eAIP/LP-ENR-4.4-en-PT.html,
ADNOV,ADNOV,SIGNIFICANT_POINT,PORTUGAL / LPPC-LPPO FIR,41.5183333333,-8.7530555556,NAV PORTUGAL,2026-06-11,https://ais.nav.pt/wp-content/uploads/AIS_Files/eAIP_Current/eAIP_Online/eAIP/html/eAIP/LP-ENR-4.4-en-PT.html,
ADORO,ADORO,SIGNIFICANT_POINT,PORTUGAL / LPPC-LPPO FIR,41.4830555556,-6.2800000000,NAV PORTUGAL,2026-06-11,https://ais.nav.pt/wp-content/uploads/AIS_Files/eAIP_Current/eAIP_Online/eAIP/html/eAIP/LP-ENR-4.4-en-PT.html,
ADSAD,ADSAD,SIGNIFICANT_POINT,PORTUGAL / LPPC-LPPO FIR,38.4780555556,-8.9811111111,NAV PORTUGAL,2026-06-11,https://ais.nav.pt/wp-content/uploads/AIS_Files/eAIP_Current/eAIP_Online/eAIP/html/eAIP/LP-ENR-4.4-en-PT.html,
ADSOL,ADSOL,SIGNIFICANT_POINT,PORTUGAL / LPPC-LPPO FIR,37.9586111111,-26.0766666667,NAV PORTUGAL,2026-06-11,https://ais.nav.pt/wp-content/uploads/AIS_Files/eAIP_Current/eAIP_Online/eAIP/html/eAIP/LP-ENR-4.4-en-PT.html,
AGADO,AGADO,SIGNIFICANT_POINT,PORTUGAL / LPPC-LPPO FIR,41.8727777778,-8.9266666667,NAV PORTUGAL,2026-06-11,https://ais.nav.pt/wp-content/uploads/AIS_Files/eAIP_Current/eAIP_Online/eAIP/html/eAIP/LP-ENR-4.4-en-PT.html,
AIREZ,AIREZ,SIGNIFICANT_POINT,PORTUGAL / LPPC-LPPO FIR,39.4547222222,-8.6661111111,NAV PORTUGAL,2026-06-11,https://ais.nav.pt/wp-content/uploads/AIS_Files/eAIP_Current/eAIP_Online/eAIP/html/eAIP/LP-ENR-4.4-en-PT.html,
AKABO,AKABO,SIGNIFICANT_POINT,PORTUGAL / LPPC-LPPO FIR,41.3219444444,-8.7008333333,NAV PORTUGAL,2026-06-11,https://ais.nav.pt/wp-content/uploads/AIS_Files/eAIP_Current/eAIP_Online/eAIP/html/eAIP/LP-ENR-4.4-en-PT.html,
AKUDA,AKUDA,SIGNIFICANT_POINT,PORTUGAL / LPPC-LPPO FIR,35.9666666667,-8.9500000000,NAV PORTUGAL,2026-06-11,https://ais.nav.pt/wp-content/uploads/AIS_Files/eAIP_Current/eAIP_Online/eAIP/html/eAIP/LP-ENR-4.4-en-PT.html,
AKULU,AKULU,SIGNIFICANT_POINT,PORTUGAL / LPPC-LPPO FIR,40.9841666667,-8.6119444444,NAV PORTUGAL,2026-06-11,https://ais.nav.pt/wp-content/uploads/AIS_Files/eAIP_Current/eAIP_Online/eAIP/html/eAIP/LP-ENR-4.4-en-PT.html,
ALAGU,ALAGU,SIGNIFICANT_POINT,PORTUGAL / LPPC-LPPO FIR,38.0886111111,-7.6144444444,NAV PORTUGAL,2026-06-11,https://ais.nav.pt/wp-content/uploads/AIS_Files/eAIP_Current/eAIP_Online/eAIP/html/eAIP/LP-ENR-4.4-en-PT.html,
ALAMA,ALAMA,SIGNIFICANT_POINT,PORTUGAL / LPPC-LPPO FIR,39.2233333333,-8.5500000000,NAV PORTUGAL,2026-06-11,https://ais.nav.pt/wp-content/uploads/AIS_Files/eAIP_Current/eAIP_Online/eAIP/html/eAIP/LP-ENR-4.4-en-PT.html,
ALCRO,ALCRO,SIGNIFICANT_POINT,PORTUGAL / LPPC-LPPO FIR,39.7050000000,-30.8461111111,NAV PORTUGAL,2026-06-11,https://ais.nav.pt/wp-content/uploads/AIS_Files/eAIP_Current/eAIP_Online/eAIP/html/eAIP/LP-ENR-4.4-en-PT.html,
AMIXI,AMIXI,SIGNIFICANT_POINT,PORTUGAL / LPPC-LPPO FIR,37.4783333333,-25.5100000000,NAV PORTUGAL,2026-06-11,https://ais.nav.pt/wp-content/uploads/AIS_Files/eAIP_Current/eAIP_Online/eAIP/html/eAIP/LP-ENR-4.4-en-PT.html,
AMSEL,AMSEL,SIGNIFICANT_POINT,PORTUGAL / LPPC-LPPO FIR,35.9666666667,-7.8833333333,NAV PORTUGAL,2026-06-11,https://ais.nav.pt/wp-content/uploads/AIS_Files/eAIP_Current/eAIP_Online/eAIP/html/eAIP/LP-ENR-4.4-en-PT.html,
AMZIC,AMZIC,SIGNIFICANT_POINT,PORTUGAL / LPPC-LPPO FIR,32.3494444444,-16.0683333333,NAV PORTUGAL,2026-06-11,https://ais.nav.pt/wp-content/uploads/AIS_Files/eAIP_Current/eAIP_Online/eAIP/html/eAIP/LP-ENR-4.4-en-PT.html,
ANAVA,ANAVA,SIGNIFICANT_POINT,PORTUGAL / LPPC-LPPO FIR,39.8994444444,-25.4088888889,NAV PORTUGAL,2026-06-11,https://ais.nav.pt/wp-content/uploads/AIS_Files/eAIP_Current/eAIP_Online/eAIP/html/eAIP/LP-ENR-4.4-en-PT.html,
APAZI,APAZI,SIGNIFICANT_POINT,PORTUGAL / LPPC-LPPO FIR,37.4925000000,-25.7519444444,NAV PORTUGAL,2026-06-11,https://ais.nav.pt/wp-content/uploads/AIS_Files/eAIP_Current/eAIP_Online/eAIP/html/eAIP/LP-ENR-4.4-en-PT.html,
ARDID,ARDID,SIGNIFICANT_POINT,PORTUGAL / LPPC-LPPO FIR,41.1733333333,-6.2822222222,NAV PORTUGAL,2026-06-11,https://ais.nav.pt/wp-content/uploads/AIS_Files/eAIP_Current/eAIP_Online/eAIP/html/eAIP/LP-ENR-4.4-en-PT.html,
ARMED,ARMED,SIGNIFICANT_POINT,PORTUGAL / LPPC-LPPO FIR,42.5000000000,-14.0000000000,NAV PORTUGAL,2026-06-11,https://ais.nav.pt/wp-content/uploads/AIS_Files/eAIP_Current/eAIP_Online/eAIP/html/eAIP/LP-ENR-4.4-en-PT.html,
ARNIT,ARNIT,SIGNIFICANT_POINT,PORTUGAL / LPPC-LPPO FIR,38.9908333333,-8.9594444444,NAV PORTUGAL,2026-06-11,https://ais.nav.pt/wp-content/uploads/AIS_Files/eAIP_Current/eAIP_Online/eAIP/html/eAIP/LP-ENR-4.4-en-PT.html,
ASGAM,ASGAM,SIGNIFICANT_POINT,PORTUGAL / LPPC-LPPO FIR,35.0000000000,-12.7116666667,NAV PORTUGAL,2026-06-11,https://ais.nav.pt/wp-content/uploads/AIS_Files/eAIP_Current/eAIP_Online/eAIP/html/eAIP/LP-ENR-4.4-en-PT.html,
ASMAR,ASMAR,SIGNIFICANT_POINT,PORTUGAL / LPPC-LPPO FIR,39.3725000000,-11.5955555556,NAV PORTUGAL,2026-06-11,https://ais.nav.pt/wp-content/uploads/AIS_Files/eAIP_Current/eAIP_Online/eAIP/html/eAIP/LP-ENR-4.4-en-PT.html,
ASMOV,ASMOV,SIGNIFICANT_POINT,PORTUGAL / LPPC-LPPO FIR,40.9694444444,-9.3469444444,NAV PORTUGAL,2026-06-11,https://ais.nav.pt/wp-content/uploads/AIS_Files/eAIP_Current/eAIP_Online/eAIP/html/eAIP/LP-ENR-4.4-en-PT.html,
ASPEX,ASPEX,SIGNIFICANT_POINT,PORTUGAL / LPPC-LPPO FIR,38.3197222222,-28.1580555556,NAV PORTUGAL,2026-06-11,https://ais.nav.pt/wp-content/uploads/AIS_Files/eAIP_Current/eAIP_Online/eAIP/html/eAIP/LP-ENR-4.4-en-PT.html,
ASPOR,ASPOR,SIGNIFICANT_POINT,PORTUGAL / LPPC-LPPO FIR,41.8152777778,-8.0811111111,NAV PORTUGAL,2026-06-11,https://ais.nav.pt/wp-content/uploads/AIS_Files/eAIP_Current/eAIP_Online/eAIP/html/eAIP/LP-ENR-4.4-en-PT.html,
ATECA,ATECA,SIGNIFICANT_POINT,PORTUGAL / LPPC-LPPO FIR,38.6583333333,-8.6225000000,NAV PORTUGAL,2026-06-11,https://ais.nav.pt/wp-content/uploads/AIS_Files/eAIP_Current/eAIP_Online/eAIP/html/eAIP/LP-ENR-4.4-en-PT.html,
BABEX,BABEX,SIGNIFICANT_POINT,PORTUGAL / LPPC-LPPO FIR,41.0402777778,-7.0838888889,NAV PORTUGAL,2026-06-11,https://ais.nav.pt/wp-content/uploads/AIS_Files/eAIP_Current/eAIP_Online/eAIP/html/eAIP/LP-ENR-4.4-en-PT.html,
BABOV,BABOV,SIGNIFICANT_POINT,PORTUGAL / LPPC-LPPO FIR,39.8763888889,-6.8736111111,NAV PORTUGAL,2026-06-11,https://ais.nav.pt/wp-content/uploads/AIS_Files/eAIP_Current/eAIP_Online/eAIP/html/eAIP/LP-ENR-4.4-en-PT.html,
BALNO,BALNO,SIGNIFICANT_POINT,PORTUGAL / LPPC-LPPO FIR,41.7305555556,-6.9816666667,NAV PORTUGAL,2026-06-11,https://ais.nav.pt/wp-content/uploads/AIS_Files/eAIP_Current/eAIP_Online/eAIP/html/eAIP/LP-ENR-4.4-en-PT.html,
BAMUX,BAMUX,SIGNIFICANT_POINT,PORTUGAL / LPPC-LPPO FIR,23.2216666667,-26.5413888889,NAV PORTUGAL,2026-06-11,https://ais.nav.pt/wp-content/uploads/AIS_Files/eAIP_Current/eAIP_Online/eAIP/html/eAIP/LP-ENR-4.4-en-PT.html,
BANAL,BANAL,SIGNIFICANT_POINT,PORTUGAL / LPPC-LPPO FIR,42.0000000000,-15.0000000000,NAV PORTUGAL,2026-06-11,https://ais.nav.pt/wp-content/uploads/AIS_Files/eAIP_Current/eAIP_Online/eAIP/html/eAIP/LP-ENR-4.4-en-PT.html,
BANIX,BANIX,SIGNIFICANT_POINT,PORTUGAL / LPPC-LPPO FIR,38.4055555556,-28.1130555556,NAV PORTUGAL,2026-06-11,https://ais.nav.pt/wp-content/uploads/AIS_Files/eAIP_Current/eAIP_Online/eAIP/html/eAIP/LP-ENR-4.4-en-PT.html,
BARDI,BARDI,SIGNIFICANT_POINT,PORTUGAL / LPPC-LPPO FIR,40.5836111111,-6.3025000000,NAV PORTUGAL,2026-06-11,https://ais.nav.pt/wp-content/uploads/AIS_Files/eAIP_Current/eAIP_Online/eAIP/html/eAIP/LP-ENR-4.4-en-PT.html,
BAROK,BAROK,SIGNIFICANT_POINT,PORTUGAL / LPPC-LPPO FIR,35.9666666667,-10.0233333333,NAV PORTUGAL,2026-06-11,https://ais.nav.pt/wp-content/uploads/AIS_Files/eAIP_Current/eAIP_Online/eAIP/html/eAIP/LP-ENR-4.4-en-PT.html,
BATAX,BATAX,SIGNIFICANT_POINT,PORTUGAL / LPPC-LPPO FIR,41.7005555556,-6.6219444444,NAV PORTUGAL,2026-06-11,https://ais.nav.pt/wp-content/uploads/AIS_Files/eAIP_Current/eAIP_Online/eAIP/html/eAIP/LP-ENR-4.4-en-PT.html,
BAVAS,BAVAS,SIGNIFICANT_POINT,PORTUGAL / LPPC-LPPO FIR,39.0000000000,-23.6783333333,NAV PORTUGAL,2026-06-11,https://ais.nav.pt/wp-content/uploads/AIS_Files/eAIP_Current/eAIP_Online/eAIP/html/eAIP/LP-ENR-4.4-en-PT.html,
BEKUN,BEKUN,SIGNIFICANT_POINT,PORTUGAL / LPPC-LPPO FIR,37.9483333333,-23.2347222222,NAV PORTUGAL,2026-06-11,https://ais.nav.pt/wp-content/uploads/AIS_Files/eAIP_Current/eAIP_Online/eAIP/html/eAIP/LP-ENR-4.4-en-PT.html,
BELDU,BELDU,SIGNIFICANT_POINT,PORTUGAL / LPPC-LPPO FIR,41.3586111111,-7.7772222222,NAV PORTUGAL,2026-06-11,https://ais.nav.pt/wp-content/uploads/AIS_Files/eAIP_Current/eAIP_Online/eAIP/html/eAIP/LP-ENR-4.4-en-PT.html,
BEVOP,BEVOP,SIGNIFICANT_POINT,PORTUGAL / LPPC-LPPO FIR,37.5991666667,-9.3875000000,NAV PORTUGAL,2026-06-11,https://ais.nav.pt/wp-content/uploads/AIS_Files/eAIP_Current/eAIP_Online/eAIP/html/eAIP/LP-ENR-4.4-en-PT.html,
BEXAL,BEXAL,SIGNIFICANT_POINT,PORTUGAL / LPPC-LPPO FIR,35.9666666667,-11.4483333333,NAV PORTUGAL,2026-06-11,https://ais.nav.pt/wp-content/uploads/AIS_Files/eAIP_Current/eAIP_Online/eAIP/html/eAIP/LP-ENR-4.4-en-PT.html,
BIGPI,BIGPI,SIGNIFICANT_POINT,PORTUGAL / LPPC-LPPO FIR,31.9519444444,-17.2488888889,NAV PORTUGAL,2026-06-11,https://ais.nav.pt/wp-content/uploads/AIS_Files/eAIP_Current/eAIP_Online/eAIP/html/eAIP/LP-ENR-4.4-en-PT.html,
BIMBO,BIMBO,SIGNIFICANT_POINT,PORTUGAL / LPPC-LPPO FIR,31.4213888889,-16.0327777778,NAV PORTUGAL,2026-06-11,https://ais.nav.pt/wp-content/uploads/AIS_Files/eAIP_Current/eAIP_Online/eAIP/html/eAIP/LP-ENR-4.4-en-PT.html,
BIRBA,BIRBA,SIGNIFICANT_POINT,PORTUGAL / LPPC-LPPO FIR,39.1055555556,-7.5119444444,NAV PORTUGAL,2026-06-11,https://ais.nav.pt/wp-content/uploads/AIS_Files/eAIP_Current/eAIP_Online/eAIP/html/eAIP/LP-ENR-4.4-en-PT.html,
BOMKO,BOMKO,SIGNIFICANT_POINT,PORTUGAL / LPPC-LPPO FIR,38.9536111111,-9.0436111111,NAV PORTUGAL,2026-06-11,https://ais.nav.pt/wp-content/uploads/AIS_Files/eAIP_Current/eAIP_Online/eAIP/html/eAIP/LP-ENR-4.4-en-PT.html,
BUNUB,BUNUB,SIGNIFICANT_POINT,PORTUGAL / LPPC-LPPO FIR,38.9138888889,-29.1177777778,NAV PORTUGAL,2026-06-11,https://ais.nav.pt/wp-content/uploads/AIS_Files/eAIP_Current/eAIP_Online/eAIP/html/eAIP/LP-ENR-4.4-en-PT.html,
BURAG,BURAG,SIGNIFICANT_POINT,PORTUGAL / LPPC-LPPO FIR,31.8538888889,-16.1141666667,NAV PORTUGAL,2026-06-11,https://ais.nav.pt/wp-content/uploads/AIS_Files/eAIP_Current/eAIP_Online/eAIP/html/eAIP/LP-ENR-4.4-en-PT.html,
BUSEN,BUSEN,SIGNIFICANT_POINT,PORTUGAL / LPPC-LPPO FIR,38.5450000000,-10.0000000000,NAV PORTUGAL,2026-06-11,https://ais.nav.pt/wp-content/uploads/AIS_Files/eAIP_Current/eAIP_Online/eAIP/html/eAIP/LP-ENR-4.4-en-PT.html,
CANAR,CANAR,SIGNIFICANT_POINT,PORTUGAL / LPPC-LPPO FIR,41.3858333333,-7.4697222222,NAV PORTUGAL,2026-06-11,https://ais.nav.pt/wp-content/uploads/AIS_Files/eAIP_Current/eAIP_Online/eAIP/html/eAIP/LP-ENR-4.4-en-PT.html,
CASLU,CASLU,SIGNIFICANT_POINT,PORTUGAL / LPPC-LPPO FIR,38.5400000000,-9.8100000000,NAV PORTUGAL,2026-06-11,https://ais.nav.pt/wp-content/uploads/AIS_Files/eAIP_Current/eAIP_Online/eAIP/html/eAIP/LP-ENR-4.4-en-PT.html,
CAZIS,CAZIS,SIGNIFICANT_POINT,PORTUGAL / LPPC-LPPO FIR,39.3686111111,-30.2286111111,NAV PORTUGAL,2026-06-11,https://ais.nav.pt/wp-content/uploads/AIS_Files/eAIP_Current/eAIP_Online/eAIP/html/eAIP/LP-ENR-4.4-en-PT.html,
CEFOX,CEFOX,SIGNIFICANT_POINT,PORTUGAL / LPPC-LPPO FIR,38.5516666667,-9.4027777778,NAV PORTUGAL,2026-06-11,https://ais.nav.pt/wp-content/uploads/AIS_Files/eAIP_Current/eAIP_Online/eAIP/html/eAIP/LP-ENR-4.4-en-PT.html,
CENIC,CENIC,SIGNIFICANT_POINT,PORTUGAL / LPPC-LPPO FIR,36.7683333333,-24.6027777778,NAV PORTUGAL,2026-06-11,https://ais.nav.pt/wp-content/uploads/AIS_Files/eAIP_Current/eAIP_Online/eAIP/html/eAIP/LP-ENR-4.4-en-PT.html,
CIDLO,CIDLO,SIGNIFICANT_POINT,PORTUGAL / LPPC-LPPO FIR,38.1891722222,-26.7384555556,NAV PORTUGAL,2026-06-11,https://ais.nav.pt/wp-content/uploads/AIS_Files/eAIP_Current/eAIP_Online/eAIP/html/eAIP/LP-ENR-4.4-en-PT.html,
COCUN,COCUN,SIGNIFICANT_POINT,PORTUGAL / LPPC-LPPO FIR,39.0266666667,-9.0686111111,NAV PORTUGAL,2026-06-11,https://ais.nav.pt/wp-content/uploads/AIS_Files/eAIP_Current/eAIP_Online/eAIP/html/eAIP/LP-ENR-4.4-en-PT.html,
CUDLY,CUDLY,SIGNIFICANT_POINT,PORTUGAL / LPPC-LPPO FIR,38.5333333333,-26.8405555556,NAV PORTUGAL,2026-06-11,https://ais.nav.pt/wp-content/uploads/AIS_Files/eAIP_Current/eAIP_Online/eAIP/html/eAIP/LP-ENR-4.4-en-PT.html,
DEDUX,DEDUX,SIGNIFICANT_POINT,PORTUGAL / LPPC-LPPO FIR,37.4113888889,-7.9580555556,NAV PORTUGAL,2026-06-11,https://ais.nav.pt/wp-content/uploads/AIS_Files/eAIP_Current/eAIP_Online/eAIP/html/eAIP/LP-ENR-4.4-en-PT.html,
DEGUN,DEGUN,SIGNIFICANT_POINT,PORTUGAL / LPPC-LPPO FIR,33.4186111111,-15.6583333333,NAV PORTUGAL,2026-06-11,https://ais.nav.pt/wp-content/uploads/AIS_Files/eAIP_Current/eAIP_Online/eAIP/html/eAIP/LP-ENR-4.4-en-PT.html,
DEKKI,DEKKI,SIGNIFICANT_POINT,PORTUGAL / LPPC-LPPO FIR,38.9630555556,-8.6955555556,NAV PORTUGAL,2026-06-11,https://ais.nav.pt/wp-content/uploads/AIS_Files/eAIP_Current/eAIP_Online/eAIP/html/eAIP/LP-ENR-4.4-en-PT.html,
DEKUS,DEKUS,SIGNIFICANT_POINT,PORTUGAL / LPPC-LPPO FIR,38.0152777778,-10.0000000000,NAV PORTUGAL,2026-06-11,https://ais.nav.pt/wp-content/uploads/AIS_Files/eAIP_Current/eAIP_Online/eAIP/html/eAIP/LP-ENR-4.4-en-PT.html,
DEMOS,DEMOS,SIGNIFICANT_POINT,PORTUGAL / LPPC-LPPO FIR,41.9258333333,-9.3619444444,NAV PORTUGAL,2026-06-11,https://ais.nav.pt/wp-content/uploads/AIS_Files/eAIP_Current/eAIP_Online/eAIP/html/eAIP/LP-ENR-4.4-en-PT.html,
DEMZO,DEMZO,SIGNIFICANT_POINT,PORTUGAL / LPPC-LPPO FIR,33.2300000000,-17.2577777778,NAV PORTUGAL,2026-06-11,https://ais.nav.pt/wp-content/uploads/AIS_Files/eAIP_Current/eAIP_Online/eAIP/html/eAIP/LP-ENR-4.4-en-PT.html,
DETOX,DETOX,SIGNIFICANT_POINT,PORTUGAL / LPPC-LPPO FIR,41.0000000000,-15.0000000000,NAV PORTUGAL,2026-06-11,https://ais.nav.pt/wp-content/uploads/AIS_Files/eAIP_Current/eAIP_Online/eAIP/html/eAIP/LP-ENR-4.4-en-PT.html,
DEVAN,DEVAN,SIGNIFICANT_POINT,PORTUGAL / LPPC-LPPO FIR,38.8411111111,-27.3947222222,NAV PORTUGAL,2026-06-11,https://ais.nav.pt/wp-content/uploads/AIS_Files/eAIP_Current/eAIP_Online/eAIP/html/eAIP/LP-ENR-4.4-en-PT.html,
DIDIT,DIDIT,SIGNIFICANT_POINT,PORTUGAL / LPPC-LPPO FIR,41.3200000000,-11.5716666667,NAV PORTUGAL,2026-06-11,https://ais.nav.pt/wp-content/uploads/AIS_Files/eAIP_Current/eAIP_Online/eAIP/html/eAIP/LP-ENR-4.4-en-PT.html,
DIGAL,DIGAL,SIGNIFICANT_POINT,PORTUGAL / LPPC-LPPO FIR,39.7408333333,-7.9897222222,NAV PORTUGAL,2026-06-11,https://ais.nav.pt/wp-content/uploads/AIS_Files/eAIP_Current/eAIP_Online/eAIP/html/eAIP/LP-ENR-4.4-en-PT.html,
DIKMO,DIKMO,SIGNIFICANT_POINT,PORTUGAL / LPPC-LPPO FIR,40.7233333333,-7.8858333333,NAV PORTUGAL,2026-06-11,https://ais.nav.pt/wp-content/uploads/AIS_Files/eAIP_Current/eAIP_Online/eAIP/html/eAIP/LP-ENR-4.4-en-PT.html,
DIKUV,DIKUV,SIGNIFICANT_POINT,PORTUGAL / LPPC-LPPO FIR,36.1816666667,-12.7505555556,NAV PORTUGAL,2026-06-11,https://ais.nav.pt/wp-content/uploads/AIS_Files/eAIP_Current/eAIP_Online/eAIP/html/eAIP/LP-ENR-4.4-en-PT.html,
DIRMA,DIRMA,SIGNIFICANT_POINT,PORTUGAL / LPPC-LPPO FIR,40.8516666667,-9.5008333333,NAV PORTUGAL,2026-06-11,https://ais.nav.pt/wp-content/uploads/AIS_Files/eAIP_Current/eAIP_Online/eAIP/html/eAIP/LP-ENR-4.4-en-PT.html,
DIVUT,DIVUT,SIGNIFICANT_POINT,PORTUGAL / LPPC-LPPO FIR,41.0286111111,-8.3258333333,NAV PORTUGAL,2026-06-11,https://ais.nav.pt/wp-content/uploads/AIS_Files/eAIP_Current/eAIP_Online/eAIP/html/eAIP/LP-ENR-4.4-en-PT.html,
DOGUT,DOGUT,SIGNIFICANT_POINT,PORTUGAL / LPPC-LPPO FIR,38.2952777778,-7.9241666667,NAV PORTUGAL,2026-06-11,https://ais.nav.pt/wp-content/uploads/AIS_Files/eAIP_Current/eAIP_Online/eAIP/html/eAIP/LP-ENR-4.4-en-PT.html,
DOKAS,DOKAS,SIGNIFICANT_POINT,PORTUGAL / LPPC-LPPO FIR,37.2325000000,-23.3644444444,NAV PORTUGAL,2026-06-11,https://ais.nav.pt/wp-content/uploads/AIS_Files/eAIP_Current/eAIP_Online/eAIP/html/eAIP/LP-ENR-4.4-en-PT.html,
DOLER,DOLER,SIGNIFICANT_POINT,PORTUGAL / LPPC-LPPO FIR,39.2680555556,-26.3800000000,NAV PORTUGAL,2026-06-11,https://ais.nav.pt/wp-content/uploads/AIS_Files/eAIP_Current/eAIP_Online/eAIP/html/eAIP/LP-ENR-4.4-en-PT.html,
DONOC,DONOC,SIGNIFICANT_POINT,PORTUGAL / LPPC-LPPO FIR,33.2238888889,-16.3558333333,NAV PORTUGAL,2026-06-11,https://ais.nav.pt/wp-content/uploads/AIS_Files/eAIP_Current/eAIP_Online/eAIP/html/eAIP/LP-ENR-4.4-en-PT.html,
DOZIV,DOZIV,SIGNIFICANT_POINT,PORTUGAL / LPPC-LPPO FIR,37.5063888889,-25.5675000000,NAV PORTUGAL,2026-06-11,https://ais.nav.pt/wp-content/uploads/AIS_Files/eAIP_Current/eAIP_Online/eAIP/html/eAIP/LP-ENR-4.4-en-PT.html,
DUTWA,DUTWA,SIGNIFICANT_POINT,PORTUGAL / LPPC-LPPO FIR,37.3661111111,-8.5572222222,NAV PORTUGAL,2026-06-11,https://ais.nav.pt/wp-content/uploads/AIS_Files/eAIP_Current/eAIP_Online/eAIP/html/eAIP/LP-ENR-4.4-en-PT.html,
DUZOP,DUZOP,SIGNIFICANT_POINT,PORTUGAL / LPPC-LPPO FIR,37.6697222222,-8.6516666667,NAV PORTUGAL,2026-06-11,https://ais.nav.pt/wp-content/uploads/AIS_Files/eAIP_Current/eAIP_Online/eAIP/html/eAIP/LP-ENR-4.4-en-PT.html,
ECLAR,ECLAR,SIGNIFICANT_POINT,PORTUGAL / LPPC-LPPO FIR,39.3138888889,-30.9608333333,NAV PORTUGAL,2026-06-11,https://ais.nav.pt/wp-content/uploads/AIS_Files/eAIP_Current/eAIP_Online/eAIP/html/eAIP/LP-ENR-4.4-en-PT.html,
EKLID,EKLID,SIGNIFICANT_POINT,PORTUGAL / LPPC-LPPO FIR,39.1425000000,-9.2636111111,NAV PORTUGAL,2026-06-11,https://ais.nav.pt/wp-content/uploads/AIS_Files/eAIP_Current/eAIP_Online/eAIP/html/eAIP/LP-ENR-4.4-en-PT.html,
EKMAR,EKMAR,SIGNIFICANT_POINT,PORTUGAL / LPPC-LPPO FIR,38.5575000000,-9.5213888889,NAV PORTUGAL,2026-06-11,https://ais.nav.pt/wp-content/uploads/AIS_Files/eAIP_Current/eAIP_Online/eAIP/html/eAIP/LP-ENR-4.4-en-PT.html,
EKNOT,EKNOT,SIGNIFICANT_POINT,PORTUGAL / LPPC-LPPO FIR,32.1763888889,-16.2958333333,NAV PORTUGAL,2026-06-11,https://ais.nav.pt/wp-content/uploads/AIS_Files/eAIP_Current/eAIP_Online/eAIP/html/eAIP/LP-ENR-4.4-en-PT.html,
EKNUT,EKNUT,SIGNIFICANT_POINT,PORTUGAL / LPPC-LPPO FIR,20.7447222222,-39.2469444444,NAV PORTUGAL,2026-06-11,https://ais.nav.pt/wp-content/uploads/AIS_Files/eAIP_Current/eAIP_Online/eAIP/html/eAIP/LP-ENR-4.4-en-PT.html,
EKPER,EKPER,SIGNIFICANT_POINT,PORTUGAL / LPPC-LPPO FIR,38.4230555556,-10.0000000000,NAV PORTUGAL,2026-06-11,https://ais.nav.pt/wp-content/uploads/AIS_Files/eAIP_Current/eAIP_Online/eAIP/html/eAIP/LP-ENR-4.4-en-PT.html,
EKROL,EKROL,SIGNIFICANT_POINT,PORTUGAL / LPPC-LPPO FIR,42.0000000000,-15.5833333333,NAV PORTUGAL,2026-06-11,https://ais.nav.pt/wp-content/uploads/AIS_Files/eAIP_Current/eAIP_Online/eAIP/html/eAIP/LP-ENR-4.4-en-PT.html,
ELBEN,ELBEN,SIGNIFICANT_POINT,PORTUGAL / LPPC-LPPO FIR,38.7027777778,-28.2700000000,NAV PORTUGAL,2026-06-11,https://ais.nav.pt/wp-content/uploads/AIS_Files/eAIP_Current/eAIP_Online/eAIP/html/eAIP/LP-ENR-4.4-en-PT.html,
ELBIM,ELBIM,SIGNIFICANT_POINT,PORTUGAL / LPPC-LPPO FIR,33.1080555556,-17.1175000000,NAV PORTUGAL,2026-06-11,https://ais.nav.pt/wp-content/uploads/AIS_Files/eAIP_Current/eAIP_Online/eAIP/html/eAIP/LP-ENR-4.4-en-PT.html,
ELDUK,ELDUK,SIGNIFICANT_POINT,PORTUGAL / LPPC-LPPO FIR,37.8111111111,-7.9405555556,NAV PORTUGAL,2026-06-11,https://ais.nav.pt/wp-content/uploads/AIS_Files/eAIP_Current/eAIP_Online/eAIP/html/eAIP/LP-ENR-4.4-en-PT.html,
ELGEK,ELGEK,SIGNIFICANT_POINT,PORTUGAL / LPPC-LPPO FIR,40.8333333333,-10.8333333333,NAV PORTUGAL,2026-06-11,https://ais.nav.pt/wp-content/uploads/AIS_Files/eAIP_Current/eAIP_Online/eAIP/html/eAIP/LP-ENR-4.4-en-PT.html,
ELGIX,ELGIX,SIGNIFICANT_POINT,PORTUGAL / LPPC-LPPO FIR,41.5211111111,-7.6730555556,NAV PORTUGAL,2026-06-11,https://ais.nav.pt/wp-content/uploads/AIS_Files/eAIP_Current/eAIP_Online/eAIP/html/eAIP/LP-ENR-4.4-en-PT.html,
ELNUB,ELNUB,SIGNIFICANT_POINT,PORTUGAL / LPPC-LPPO FIR,39.0822222222,-10.6711111111,NAV PORTUGAL,2026-06-11,https://ais.nav.pt/wp-content/uploads/AIS_Files/eAIP_Current/eAIP_Online/eAIP/html/eAIP/LP-ENR-4.4-en-PT.html,
ELVAR,ELVAR,SIGNIFICANT_POINT,PORTUGAL / LPPC-LPPO FIR,39.2194444444,-7.2233333333,NAV PORTUGAL,2026-06-11,https://ais.nav.pt/wp-content/uploads/AIS_Files/eAIP_Current/eAIP_Online/eAIP/html/eAIP/LP-ENR-4.4-en-PT.html,
EMPAD,EMPAD,SIGNIFICANT_POINT,PORTUGAL / LPPC-LPPO FIR,38.8955555556,-9.0552777778,NAV PORTUGAL,2026-06-11,https://ais.nav.pt/wp-content/uploads/AIS_Files/eAIP_Current/eAIP_Online/eAIP/html/eAIP/LP-ENR-4.4-en-PT.html,
EPAKA,EPAKA,SIGNIFICANT_POINT,PORTUGAL / LPPC-LPPO FIR,33.7311111111,-16.1250000000,NAV PORTUGAL,2026-06-11,https://ais.nav.pt/wp-content/uploads/AIS_Files/eAIP_Current/eAIP_Online/eAIP/html/eAIP/LP-ENR-4.4-en-PT.html,
EPODI,EPODI,SIGNIFICANT_POINT,PORTUGAL / LPPC-LPPO FIR,38.9227777778,-27.2597222222,NAV PORTUGAL,2026-06-11,https://ais.nav.pt/wp-content/uploads/AIS_Files/eAIP_Current/eAIP_Online/eAIP/html/eAIP/LP-ENR-4.4-en-PT.html,
EPOPO,EPOPO,SIGNIFICANT_POINT,PORTUGAL / LPPC-LPPO FIR,41.9369444444,-10.2036111111,NAV PORTUGAL,2026-06-11,https://ais.nav.pt/wp-content/uploads/AIS_Files/eAIP_Current/eAIP_Online/eAIP/html/eAIP/LP-ENR-4.4-en-PT.html,
ERANO,ERANO,SIGNIFICANT_POINT,PORTUGAL / LPPC-LPPO FIR,38.1794444444,-28.3166666667,NAV PORTUGAL,2026-06-11,https://ais.nav.pt/wp-content/uploads/AIS_Files/eAIP_Current/eAIP_Online/eAIP/html/eAIP/LP-ENR-4.4-en-PT.html,
ERNEK,ERNEK,SIGNIFICANT_POINT,PORTUGAL / LPPC-LPPO FIR,20.4283333333,-31.7205555556,NAV PORTUGAL,2026-06-11,https://ais.nav.pt/wp-content/uploads/AIS_Files/eAIP_Current/eAIP_Online/eAIP/html/eAIP/LP-ENR-4.4-en-PT.html,
ERNIL,ERNIL,SIGNIFICANT_POINT,PORTUGAL / LPPC-LPPO FIR,38.4980555556,-9.5297222222,NAV PORTUGAL,2026-06-11,https://ais.nav.pt/wp-content/uploads/AIS_Files/eAIP_Current/eAIP_Online/eAIP/html/eAIP/LP-ENR-4.4-en-PT.html,
ERPES,ERPES,SIGNIFICANT_POINT,PORTUGAL / LPPC-LPPO FIR,40.0000000000,-15.0000000000,NAV PORTUGAL,2026-06-11,https://ais.nav.pt/wp-content/uploads/AIS_Files/eAIP_Current/eAIP_Online/eAIP/html/eAIP/LP-ENR-4.4-en-PT.html,
ERTIS,ERTIS,SIGNIFICANT_POINT,PORTUGAL / LPPC-LPPO FIR,37.4166666667,-7.6147222222,NAV PORTUGAL,2026-06-11,https://ais.nav.pt/wp-content/uploads/AIS_Files/eAIP_Current/eAIP_Online/eAIP/html/eAIP/LP-ENR-4.4-en-PT.html,
ERUKU,ERUKU,SIGNIFICANT_POINT,PORTUGAL / LPPC-LPPO FIR,38.7925000000,-8.9830555556,NAV PORTUGAL,2026-06-11,https://ais.nav.pt/wp-content/uploads/AIS_Files/eAIP_Current/eAIP_Online/eAIP/html/eAIP/LP-ENR-4.4-en-PT.html,
ESEBI,ESEBI,SIGNIFICANT_POINT,PORTUGAL / LPPC-LPPO FIR,39.4030555556,-8.6663888889,NAV PORTUGAL,2026-06-11,https://ais.nav.pt/wp-content/uploads/AIS_Files/eAIP_Current/eAIP_Online/eAIP/html/eAIP/LP-ENR-4.4-en-PT.html,
ESUTI,ESUTI,SIGNIFICANT_POINT,PORTUGAL / LPPC-LPPO FIR,37.8600000000,-10.4302777778,NAV PORTUGAL,2026-06-11,https://ais.nav.pt/wp-content/uploads/AIS_Files/eAIP_Current/eAIP_Online/eAIP/html/eAIP/LP-ENR-4.4-en-PT.html,
ETAKA,ETAKA,SIGNIFICANT_POINT,PORTUGAL / LPPC-LPPO FIR,41.7891666667,-7.7300000000,NAV PORTUGAL,2026-06-11,https://ais.nav.pt/wp-content/uploads/AIS_Files/eAIP_Current/eAIP_Online/eAIP/html/eAIP/LP-ENR-4.4-en-PT.html,
ETROX,ETROX,SIGNIFICANT_POINT,PORTUGAL / LPPC-LPPO FIR,36.4025000000,-24.0244444444,NAV PORTUGAL,2026-06-11,https://ais.nav.pt/wp-content/uploads/AIS_Files/eAIP_Current/eAIP_Online/eAIP/html/eAIP/LP-ENR-4.4-en-PT.html,
ETTOL,ETTOL,SIGNIFICANT_POINT,PORTUGAL / LPPC-LPPO FIR,36.7711111111,-8.6366666667,NAV PORTUGAL,2026-06-11,https://ais.nav.pt/wp-content/uploads/AIS_Files/eAIP_Current/eAIP_Online/eAIP/html/eAIP/LP-ENR-4.4-en-PT.html,
EVGOT,EVGOT,SIGNIFICANT_POINT,PORTUGAL / LPPC-LPPO FIR,32.9177777778,-16.3438888889,NAV PORTUGAL,2026-06-11,https://ais.nav.pt/wp-content/uploads/AIS_Files/eAIP_Current/eAIP_Online/eAIP/html/eAIP/LP-ENR-4.4-en-PT.html,
EVPAP,EVPAP,SIGNIFICANT_POINT,PORTUGAL / LPPC-LPPO FIR,39.1525000000,-8.7938888889,NAV PORTUGAL,2026-06-11,https://ais.nav.pt/wp-content/uploads/AIS_Files/eAIP_Current/eAIP_Online/eAIP/html/eAIP/LP-ENR-4.4-en-PT.html,
EVURA,EVURA,SIGNIFICANT_POINT,PORTUGAL / LPPC-LPPO FIR,38.6650000000,-7.9186111111,NAV PORTUGAL,2026-06-11,https://ais.nav.pt/wp-content/uploads/AIS_Files/eAIP_Current/eAIP_Online/eAIP/html/eAIP/LP-ENR-4.4-en-PT.html,
EXFUN,EXFUN,SIGNIFICANT_POINT,PORTUGAL / LPPC-LPPO FIR,38.6911111111,-10.0000000000,NAV PORTUGAL,2026-06-11,https://ais.nav.pt/wp-content/uploads/AIS_Files/eAIP_Current/eAIP_Online/eAIP/html/eAIP/LP-ENR-4.4-en-PT.html,
EXODO,EXODO,SIGNIFICANT_POINT,PORTUGAL / LPPC-LPPO FIR,33.7577777778,-16.3194444444,NAV PORTUGAL,2026-06-11,https://ais.nav.pt/wp-content/uploads/AIS_Files/eAIP_Current/eAIP_Online/eAIP/html/eAIP/LP-ENR-4.4-en-PT.html,
EXONA,EXONA,SIGNIFICANT_POINT,PORTUGAL / LPPC-LPPO FIR,38.9044444444,-8.0166666667,NAV PORTUGAL,2026-06-11,https://ais.nav.pt/wp-content/uploads/AIS_Files/eAIP_Current/eAIP_Online/eAIP/html/eAIP/LP-ENR-4.4-en-PT.html,
FADEF,FADEF,SIGNIFICANT_POINT,PORTUGAL / LPPC-LPPO FIR,39.1955555556,-8.9130555556,NAV PORTUGAL,2026-06-11,https://ais.nav.pt/wp-content/uploads/AIS_Files/eAIP_Current/eAIP_Online/eAIP/html/eAIP/LP-ENR-4.4-en-PT.html,
FAGUT,FAGUT,SIGNIFICANT_POINT,PORTUGAL / LPPC-LPPO FIR,32.1091666667,-16.4716666667,NAV PORTUGAL,2026-06-11,https://ais.nav.pt/wp-content/uploads/AIS_Files/eAIP_Current/eAIP_Online/eAIP/html/eAIP/LP-ENR-4.4-en-PT.html,
FATAG,FATAG,SIGNIFICANT_POINT,PORTUGAL / LPPC-LPPO FIR,38.6988888889,-29.1033333333,NAV PORTUGAL,2026-06-11,https://ais.nav.pt/wp-content/uploads/AIS_Files/eAIP_Current/eAIP_Online/eAIP/html/eAIP/LP-ENR-4.4-en-PT.html,
FERFE,FERFE,SIGNIFICANT_POINT,PORTUGAL / LPPC-LPPO FIR,39.0586111111,-10.0058333333,NAV PORTUGAL,2026-06-11,https://ais.nav.pt/wp-content/uploads/AIS_Files/eAIP_Current/eAIP_Online/eAIP/html/eAIP/LP-ENR-4.4-en-PT.html,
FUSSI,FUSSI,SIGNIFICANT_POINT,PORTUGAL / LPPC-LPPO FIR,39.2108333333,-8.9047222222,NAV PORTUGAL,2026-06-11,https://ais.nav.pt/wp-content/uploads/AIS_Files/eAIP_Current/eAIP_Online/eAIP/html/eAIP/LP-ENR-4.4-en-PT.html,
FUSUL,FUSUL,SIGNIFICANT_POINT,PORTUGAL / LPPC-LPPO FIR,32.6013888889,-16.6619444444,NAV PORTUGAL,2026-06-11,https://ais.nav.pt/wp-content/uploads/AIS_Files/eAIP_Current/eAIP_Online/eAIP/html/eAIP/LP-ENR-4.4-en-PT.html,
GAIOS,GAIOS,SIGNIFICANT_POINT,PORTUGAL / LPPC-LPPO FIR,38.2755555556,-8.5430555556,NAV PORTUGAL,2026-06-11,https://ais.nav.pt/wp-content/uploads/AIS_Files/eAIP_Current/eAIP_Online/eAIP/html/eAIP/LP-ENR-4.4-en-PT.html,
GALOZ,GALOZ,SIGNIFICANT_POINT,PORTUGAL / LPPC-LPPO FIR,33.0336111111,-17.4205555556,NAV PORTUGAL,2026-06-11,https://ais.nav.pt/wp-content/uploads/AIS_Files/eAIP_Current/eAIP_Online/eAIP/html/eAIP/LP-ENR-4.4-en-PT.html,
GALPA,GALPA,SIGNIFICANT_POINT,PORTUGAL / LPPC-LPPO FIR,34.3980555556,-14.7302777778,NAV PORTUGAL,2026-06-11,https://ais.nav.pt/wp-content/uploads/AIS_Files/eAIP_Current/eAIP_Online/eAIP/html/eAIP/LP-ENR-4.4-en-PT.html,
GANBA,GANBA,SIGNIFICANT_POINT,PORTUGAL / LPPC-LPPO FIR,41.2730555556,-9.0625000000,NAV PORTUGAL,2026-06-11,https://ais.nav.pt/wp-content/uploads/AIS_Files/eAIP_Current/eAIP_Online/eAIP/html/eAIP/LP-ENR-4.4-en-PT.html,
GANSU,GANSU,SIGNIFICANT_POINT,PORTUGAL / LPPC-LPPO FIR,38.0000000000,-9.8175000000,NAV PORTUGAL,2026-06-11,https://ais.nav.pt/wp-content/uploads/AIS_Files/eAIP_Current/eAIP_Online/eAIP/html/eAIP/LP-ENR-4.4-en-PT.html,
GATOH,GATOH,SIGNIFICANT_POINT,PORTUGAL / LPPC-LPPO FIR,38.9936111111,-27.3333333333,NAV PORTUGAL,2026-06-11,https://ais.nav.pt/wp-content/uploads/AIS_Files/eAIP_Current/eAIP_Online/eAIP/html/eAIP/LP-ENR-4.4-en-PT.html,
GEBTI,GEBTI,SIGNIFICANT_POINT,PORTUGAL / LPPC-LPPO FIR,36.9727777778,-7.6752777778,NAV PORTUGAL,2026-06-11,https://ais.nav.pt/wp-content/uploads/AIS_Files/eAIP_Current/eAIP_Online/eAIP/html/eAIP/LP-ENR-4.4-en-PT.html,
GENRO,GENRO,SIGNIFICANT_POINT,PORTUGAL / LPPC-LPPO FIR,37.1930555556,-7.6147222222,NAV PORTUGAL,2026-06-11,https://ais.nav.pt/wp-content/uploads/AIS_Files/eAIP_Current/eAIP_Online/eAIP/html/eAIP/LP-ENR-4.4-en-PT.html,
GIKAR,GIKAR,SIGNIFICANT_POINT,PORTUGAL / LPPC-LPPO FIR,34.1661111111,-14.0300000000,NAV PORTUGAL,2026-06-11,https://ais.nav.pt/wp-content/uploads/AIS_Files/eAIP_Current/eAIP_Online/eAIP/html/eAIP/LP-ENR-4.4-en-PT.html,
GIMAL,GIMAL,SIGNIFICANT_POINT,PORTUGAL / LPPC-LPPO FIR,36.7644444444,-8.0058333333,NAV PORTUGAL,2026-06-11,https://ais.nav.pt/wp-content/uploads/AIS_Files/eAIP_Current/eAIP_Online/eAIP/html/eAIP/LP-ENR-4.4-en-PT.html,
GINSU,GINSU,SIGNIFICANT_POINT,PORTUGAL / LPPC-LPPO FIR,36.2925000000,-27.6477777778,NAV PORTUGAL,2026-06-11,https://ais.nav.pt/wp-content/uploads/AIS_Files/eAIP_Current/eAIP_Online/eAIP/html/eAIP/LP-ENR-4.4-en-PT.html,
GIRIX,GIRIX,SIGNIFICANT_POINT,PORTUGAL / LPPC-LPPO FIR,37.2094444444,-25.2197222222,NAV PORTUGAL,2026-06-11,https://ais.nav.pt/wp-content/uploads/AIS_Files/eAIP_Current/eAIP_Online/eAIP/html/eAIP/LP-ENR-4.4-en-PT.html,
GOBEG,GOBEG,SIGNIFICANT_POINT,PORTUGAL / LPPC-LPPO FIR,29.0000000000,-25.0000000000,NAV PORTUGAL,2026-06-11,https://ais.nav.pt/wp-content/uploads/AIS_Files/eAIP_Current/eAIP_Online/eAIP/html/eAIP/LP-ENR-4.4-en-PT.html,
GODGI,GODGI,SIGNIFICANT_POINT,PORTUGAL / LPPC-LPPO FIR,38.4241666667,-9.1855555556,NAV PORTUGAL,2026-06-11,https://ais.nav.pt/wp-content/uploads/AIS_Files/eAIP_Current/eAIP_Online/eAIP/html/eAIP/LP-ENR-4.4-en-PT.html,
GOKHA,GOKHA,SIGNIFICANT_POINT,PORTUGAL / LPPC-LPPO FIR,37.2922222222,-8.6163888889,NAV PORTUGAL,2026-06-11,https://ais.nav.pt/wp-content/uploads/AIS_Files/eAIP_Current/eAIP_Online/eAIP/html/eAIP/LP-ENR-4.4-en-PT.html,
GOMOS,GOMOS,SIGNIFICANT_POINT,PORTUGAL / LPPC-LPPO FIR,37.0133333333,-30.0572222222,NAV PORTUGAL,2026-06-11,https://ais.nav.pt/wp-content/uploads/AIS_Files/eAIP_Current/eAIP_Online/eAIP/html/eAIP/LP-ENR-4.4-en-PT.html,
GONAN,GONAN,SIGNIFICANT_POINT,PORTUGAL / LPPC-LPPO FIR,45.0000000000,-14.0000000000,NAV PORTUGAL,2026-06-11,https://ais.nav.pt/wp-content/uploads/AIS_Files/eAIP_Current/eAIP_Online/eAIP/html/eAIP/LP-ENR-4.4-en-PT.html,
GORZI,GORZI,SIGNIFICANT_POINT,PORTUGAL / LPPC-LPPO FIR,38.7252777778,-28.4177777778,NAV PORTUGAL,2026-06-11,https://ais.nav.pt/wp-content/uploads/AIS_Files/eAIP_Current/eAIP_Online/eAIP/html/eAIP/LP-ENR-4.4-en-PT.html,
GOSGA,GOSGA,SIGNIFICANT_POINT,PORTUGAL / LPPC-LPPO FIR,32.0822222222,-16.6311111111,NAV PORTUGAL,2026-06-11,https://ais.nav.pt/wp-content/uploads/AIS_Files/eAIP_Current/eAIP_Online/eAIP/html/eAIP/LP-ENR-4.4-en-PT.html,
GOXAS,GOXAS,SIGNIFICANT_POINT,PORTUGAL / LPPC-LPPO FIR,38.6113888889,-27.8647222222,NAV PORTUGAL,2026-06-11,https://ais.nav.pt/wp-content/uploads/AIS_Files/eAIP_Current/eAIP_Online/eAIP/html/eAIP/LP-ENR-4.4-en-PT.html,
GUDAV,GUDAV,SIGNIFICANT_POINT,PORTUGAL / LPPC-LPPO FIR,38.6505555556,-8.5833333333,NAV PORTUGAL,2026-06-11,https://ais.nav.pt/wp-content/uploads/AIS_Files/eAIP_Current/eAIP_Online/eAIP/html/eAIP/LP-ENR-4.4-en-PT.html,
GUNTI,GUNTI,SIGNIFICANT_POINT,PORTUGAL / LPPC-LPPO FIR,39.0000000000,-15.0000000000,NAV PORTUGAL,2026-06-11,https://ais.nav.pt/wp-content/uploads/AIS_Files/eAIP_Current/eAIP_Online/eAIP/html/eAIP/LP-ENR-4.4-en-PT.html,
GUWEX,GUWEX,SIGNIFICANT_POINT,PORTUGAL / LPPC-LPPO FIR,37.5963888889,-8.0188888889,NAV PORTUGAL,2026-06-11,https://ais.nav.pt/wp-content/uploads/AIS_Files/eAIP_Current/eAIP_Online/eAIP/html/eAIP/LP-ENR-4.4-en-PT.html,
HIDRA,HIDRA,SIGNIFICANT_POINT,PORTUGAL / LPPC-LPPO FIR,44.5000000000,-13.0000000000,NAV PORTUGAL,2026-06-11,https://ais.nav.pt/wp-content/uploads/AIS_Files/eAIP_Current/eAIP_Online/eAIP/html/eAIP/LP-ENR-4.4-en-PT.html,
IBBAN,IBBAN,SIGNIFICANT_POINT,PORTUGAL / LPPC-LPPO FIR,33.3430555556,-17.1422222222,NAV PORTUGAL,2026-06-11,https://ais.nav.pt/wp-content/uploads/AIS_Files/eAIP_Current/eAIP_Online/eAIP/html/eAIP/LP-ENR-4.4-en-PT.html,
IBERO,IBERO,SIGNIFICANT_POINT,PORTUGAL / LPPC-LPPO FIR,41.3455555556,-7.9197222222,NAV PORTUGAL,2026-06-11,https://ais.nav.pt/wp-content/uploads/AIS_Files/eAIP_Current/eAIP_Online/eAIP/html/eAIP/LP-ENR-4.4-en-PT.html,
IBIDO,IBIDO,SIGNIFICANT_POINT,PORTUGAL / LPPC-LPPO FIR,40.8847222222,-10.1866666667,NAV PORTUGAL,2026-06-11,https://ais.nav.pt/wp-content/uploads/AIS_Files/eAIP_Current/eAIP_Online/eAIP/html/eAIP/LP-ENR-4.4-en-PT.html,
IDBID,IDBID,SIGNIFICANT_POINT,PORTUGAL / LPPC-LPPO FIR,39.2783333333,-8.0166666667,NAV PORTUGAL,2026-06-11,https://ais.nav.pt/wp-content/uploads/AIS_Files/eAIP_Current/eAIP_Online/eAIP/html/eAIP/LP-ENR-4.4-en-PT.html,
IDLIP,IDLIP,SIGNIFICANT_POINT,PORTUGAL / LPPC-LPPO FIR,37.0136111111,-7.9750000000,NAV PORTUGAL,2026-06-11,https://ais.nav.pt/wp-content/uploads/AIS_Files/eAIP_Current/eAIP_Online/eAIP/html/eAIP/LP-ENR-4.4-en-PT.html,
IDREL,IDREL,SIGNIFICANT_POINT,PORTUGAL / LPPC-LPPO FIR,34.3416666667,-16.2916666667,NAV PORTUGAL,2026-06-11,https://ais.nav.pt/wp-content/uploads/AIS_Files/eAIP_Current/eAIP_Online/eAIP/html/eAIP/LP-ENR-4.4-en-PT.html,
ILCAT,ILCAT,SIGNIFICANT_POINT,PORTUGAL / LPPC-LPPO FIR,33.4341666667,-17.0483333333,NAV PORTUGAL,2026-06-11,https://ais.nav.pt/wp-content/uploads/AIS_Files/eAIP_Current/eAIP_Online/eAIP/html/eAIP/LP-ENR-4.4-en-PT.html,
IMILE,IMILE,SIGNIFICANT_POINT,PORTUGAL / LPPC-LPPO FIR,38.7836111111,-27.1136111111,NAV PORTUGAL,2026-06-11,https://ais.nav.pt/wp-content/uploads/AIS_Files/eAIP_Current/eAIP_Online/eAIP/html/eAIP/LP-ENR-4.4-en-PT.html,
INBOM,INBOM,SIGNIFICANT_POINT,PORTUGAL / LPPC-LPPO FIR,40.0019444444,-8.3019444444,NAV PORTUGAL,2026-06-11,https://ais.nav.pt/wp-content/uploads/AIS_Files/eAIP_Current/eAIP_Online/eAIP/html/eAIP/LP-ENR-4.4-en-PT.html,
INBOX,INBOX,SIGNIFICANT_POINT,PORTUGAL / LPPC-LPPO FIR,38.3683333333,-33.3636111111,NAV PORTUGAL,2026-06-11,https://ais.nav.pt/wp-content/uploads/AIS_Files/eAIP_Current/eAIP_Online/eAIP/html/eAIP/LP-ENR-4.4-en-PT.html,
INBUL,INBUL,SIGNIFICANT_POINT,PORTUGAL / LPPC-LPPO FIR,38.4952777778,-30.0000000000,NAV PORTUGAL,2026-06-11,https://ais.nav.pt/wp-content/uploads/AIS_Files/eAIP_Current/eAIP_Online/eAIP/html/eAIP/LP-ENR-4.4-en-PT.html,
INKIT,INKIT,SIGNIFICANT_POINT,PORTUGAL / LPPC-LPPO FIR,41.1802777778,-7.8908333333,NAV PORTUGAL,2026-06-11,https://ais.nav.pt/wp-content/uploads/AIS_Files/eAIP_Current/eAIP_Online/eAIP/html/eAIP/LP-ENR-4.4-en-PT.html,
INLIB,INLIB,SIGNIFICANT_POINT,PORTUGAL / LPPC-LPPO FIR,38.3266666667,-9.2361111111,NAV PORTUGAL,2026-06-11,https://ais.nav.pt/wp-content/uploads/AIS_Files/eAIP_Current/eAIP_Online/eAIP/html/eAIP/LP-ENR-4.4-en-PT.html,
INPIR,INPIR,SIGNIFICANT_POINT,PORTUGAL / LPPC-LPPO FIR,38.6066666667,-26.9291666667,NAV PORTUGAL,2026-06-11,https://ais.nav.pt/wp-content/uploads/AIS_Files/eAIP_Current/eAIP_Online/eAIP/html/eAIP/LP-ENR-4.4-en-PT.html,
INSAD,INSAD,SIGNIFICANT_POINT,PORTUGAL / LPPC-LPPO FIR,28.0000000000,-25.0000000000,NAV PORTUGAL,2026-06-11,https://ais.nav.pt/wp-content/uploads/AIS_Files/eAIP_Current/eAIP_Online/eAIP/html/eAIP/LP-ENR-4.4-en-PT.html,
IPSIK,IPSIK,SIGNIFICANT_POINT,PORTUGAL / LPPC-LPPO FIR,39.5647222222,-7.9147222222,NAV PORTUGAL,2026-06-11,https://ais.nav.pt/wp-content/uploads/AIS_Files/eAIP_Current/eAIP_Online/eAIP/html/eAIP/LP-ENR-4.4-en-PT.html,
IPSIN,IPSIN,SIGNIFICANT_POINT,PORTUGAL / LPPC-LPPO FIR,19.3705555556,-38.5955555556,NAV PORTUGAL,2026-06-11,https://ais.nav.pt/wp-content/uploads/AIS_Files/eAIP_Current/eAIP_Online/eAIP/html/eAIP/LP-ENR-4.4-en-PT.html,
IRDOP,IRDOP,SIGNIFICANT_POINT,PORTUGAL / LPPC-LPPO FIR,38.9694444444,-27.5413888889,NAV PORTUGAL,2026-06-11,https://ais.nav.pt/wp-content/uploads/AIS_Files/eAIP_Current/eAIP_Online/eAIP/html/eAIP/LP-ENR-4.4-en-PT.html,
IRKID,IRKID,SIGNIFICANT_POINT,PORTUGAL / LPPC-LPPO FIR,33.9250000000,-18.0691666667,NAV PORTUGAL,2026-06-11,https://ais.nav.pt/wp-content/uploads/AIS_Files/eAIP_Current/eAIP_Online/eAIP/html/eAIP/LP-ENR-4.4-en-PT.html,
IRSAN,IRSAN,SIGNIFICANT_POINT,PORTUGAL / LPPC-LPPO FIR,33.1666666667,-16.5044444444,NAV PORTUGAL,2026-06-11,https://ais.nav.pt/wp-content/uploads/AIS_Files/eAIP_Current/eAIP_Online/eAIP/html/eAIP/LP-ENR-4.4-en-PT.html,
ITVIT,ITVIT,SIGNIFICANT_POINT,PORTUGAL / LPPC-LPPO FIR,38.9613888889,-8.5622222222,NAV PORTUGAL,2026-06-11,https://ais.nav.pt/wp-content/uploads/AIS_Files/eAIP_Current/eAIP_Online/eAIP/html/eAIP/LP-ENR-4.4-en-PT.html,
IXIDA,IXIDA,SIGNIFICANT_POINT,PORTUGAL / LPPC-LPPO FIR,39.6550000000,-8.0166666667,NAV PORTUGAL,2026-06-11,https://ais.nav.pt/wp-content/uploads/AIS_Files/eAIP_Current/eAIP_Online/eAIP/html/eAIP/LP-ENR-4.4-en-PT.html,
IXIKU,IXIKU,SIGNIFICANT_POINT,PORTUGAL / LPPC-LPPO FIR,27.0000000000,-25.0000000000,NAV PORTUGAL,2026-06-11,https://ais.nav.pt/wp-content/uploads/AIS_Files/eAIP_Current/eAIP_Online/eAIP/html/eAIP/LP-ENR-4.4-en-PT.html,
IXOLI,IXOLI,SIGNIFICANT_POINT,PORTUGAL / LPPC-LPPO FIR,36.9763888889,-8.7016666667,NAV PORTUGAL,2026-06-11,https://ais.nav.pt/wp-content/uploads/AIS_Files/eAIP_Current/eAIP_Online/eAIP/html/eAIP/LP-ENR-4.4-en-PT.html,
IXUVA,IXUVA,SIGNIFICANT_POINT,PORTUGAL / LPPC-LPPO FIR,41.1844444444,-9.8525000000,NAV PORTUGAL,2026-06-11,https://ais.nav.pt/wp-content/uploads/AIS_Files/eAIP_Current/eAIP_Online/eAIP/html/eAIP/LP-ENR-4.4-en-PT.html,
IZENI,IZENI,SIGNIFICANT_POINT,PORTUGAL / LPPC-LPPO FIR,38.1408333333,-11.0391666667,NAV PORTUGAL,2026-06-11,https://ais.nav.pt/wp-content/uploads/AIS_Files/eAIP_Current/eAIP_Online/eAIP/html/eAIP/LP-ENR-4.4-en-PT.html,
JETAF,JETAF,SIGNIFICANT_POINT,PORTUGAL / LPPC-LPPO FIR,37.6727777778,-25.4791666667,NAV PORTUGAL,2026-06-11,https://ais.nav.pt/wp-content/uploads/AIS_Files/eAIP_Current/eAIP_Online/eAIP/html/eAIP/LP-ENR-4.4-en-PT.html,
JUBNO,JUBNO,SIGNIFICANT_POINT,PORTUGAL / LPPC-LPPO FIR,36.6319444444,-25.6261111111,NAV PORTUGAL,2026-06-11,https://ais.nav.pt/wp-content/uploads/AIS_Files/eAIP_Current/eAIP_Online/eAIP/html/eAIP/LP-ENR-4.4-en-PT.html,
KEKOS,KEKOS,SIGNIFICANT_POINT,PORTUGAL / LPPC-LPPO FIR,32.4491666667,-16.2272222222,NAV PORTUGAL,2026-06-11,https://ais.nav.pt/wp-content/uploads/AIS_Files/eAIP_Current/eAIP_Online/eAIP/html/eAIP/LP-ENR-4.4-en-PT.html,
KELIK,KELIK,SIGNIFICANT_POINT,PORTUGAL / LPPC-LPPO FIR,38.4919444444,-9.0063888889,NAV PORTUGAL,2026-06-11,https://ais.nav.pt/wp-content/uploads/AIS_Files/eAIP_Current/eAIP_Online/eAIP/html/eAIP/LP-ENR-4.4-en-PT.html,
KETID,KETID,SIGNIFICANT_POINT,PORTUGAL / LPPC-LPPO FIR,30.0000000000,-20.0000000000,NAV PORTUGAL,2026-06-11,https://ais.nav.pt/wp-content/uploads/AIS_Files/eAIP_Current/eAIP_Online/eAIP/html/eAIP/LP-ENR-4.4-en-PT.html,
KICAS,KICAS,SIGNIFICANT_POINT,PORTUGAL / LPPC-LPPO FIR,33.7505555556,-16.4733333333,NAV PORTUGAL,2026-06-11,https://ais.nav.pt/wp-content/uploads/AIS_Files/eAIP_Current/eAIP_Online/eAIP/html/eAIP/LP-ENR-4.4-en-PT.html,
KIZEV,KIZEV,SIGNIFICANT_POINT,PORTUGAL / LPPC-LPPO FIR,37.5769444444,-8.1677777778,NAV PORTUGAL,2026-06-11,https://ais.nav.pt/wp-content/uploads/AIS_Files/eAIP_Current/eAIP_Online/eAIP/html/eAIP/LP-ENR-4.4-en-PT.html,
KOGON,KOGON,SIGNIFICANT_POINT,PORTUGAL / LPPC-LPPO FIR,38.9997222222,-27.3230555556,NAV PORTUGAL,2026-06-11,https://ais.nav.pt/wp-content/uploads/AIS_Files/eAIP_Current/eAIP_Online/eAIP/html/eAIP/LP-ENR-4.4-en-PT.html,
KOKER,KOKER,SIGNIFICANT_POINT,PORTUGAL / LPPC-LPPO FIR,39.9058333333,-33.7338888889,NAV PORTUGAL,2026-06-11,https://ais.nav.pt/wp-content/uploads/AIS_Files/eAIP_Current/eAIP_Online/eAIP/html/eAIP/LP-ENR-4.4-en-PT.html,
KOLIT,KOLIT,SIGNIFICANT_POINT,PORTUGAL / LPPC-LPPO FIR,40.5486111111,-33.3891666667,NAV PORTUGAL,2026-06-11,https://ais.nav.pt/wp-content/uploads/AIS_Files/eAIP_Current/eAIP_Online/eAIP/html/eAIP/LP-ENR-4.4-en-PT.html,
KOMUT,KOMUT,SIGNIFICANT_POINT,PORTUGAL / LPPC-LPPO FIR,38.0000000000,-15.0000000000,NAV PORTUGAL,2026-06-11,https://ais.nav.pt/wp-content/uploads/AIS_Files/eAIP_Current/eAIP_Online/eAIP/html/eAIP/LP-ENR-4.4-en-PT.html,
KOPAS,KOPAS,SIGNIFICANT_POINT,PORTUGAL / LPPC-LPPO FIR,44.0000000000,-13.0000000000,NAV PORTUGAL,2026-06-11,https://ais.nav.pt/wp-content/uploads/AIS_Files/eAIP_Current/eAIP_Online/eAIP/html/eAIP/LP-ENR-4.4-en-PT.html,
KOPAV,KOPAV,SIGNIFICANT_POINT,PORTUGAL / LPPC-LPPO FIR,37.4416666667,-8.2691666667,NAV PORTUGAL,2026-06-11,https://ais.nav.pt/wp-content/uploads/AIS_Files/eAIP_Current/eAIP_Online/eAIP/html/eAIP/LP-ENR-4.4-en-PT.html,
KUXOV,KUXOV,SIGNIFICANT_POINT,PORTUGAL / LPPC-LPPO FIR,26.0000000000,-25.0000000000,NAV PORTUGAL,2026-06-11,https://ais.nav.pt/wp-content/uploads/AIS_Files/eAIP_Current/eAIP_Online/eAIP/html/eAIP/LP-ENR-4.4-en-PT.html,
LACTA,LACTA,SIGNIFICANT_POINT,PORTUGAL / LPPC-LPPO FIR,38.9913888889,-27.3366666667,NAV PORTUGAL,2026-06-11,https://ais.nav.pt/wp-content/uploads/AIS_Files/eAIP_Current/eAIP_Online/eAIP/html/eAIP/LP-ENR-4.4-en-PT.html,
LADOX,LADOX,SIGNIFICANT_POINT,PORTUGAL / LPPC-LPPO FIR,38.9472222222,-28.0211111111,NAV PORTUGAL,2026-06-11,https://ais.nav.pt/wp-content/uploads/AIS_Files/eAIP_Current/eAIP_Online/eAIP/html/eAIP/LP-ENR-4.4-en-PT.html,
LAMDI,LAMDI,SIGNIFICANT_POINT,PORTUGAL / LPPC-LPPO FIR,39.2058333333,-10.9650000000,NAV PORTUGAL,2026-06-11,https://ais.nav.pt/wp-content/uploads/AIS_Files/eAIP_Current/eAIP_Online/eAIP/html/eAIP/LP-ENR-4.4-en-PT.html,
LAPPA,LAPPA,SIGNIFICANT_POINT,PORTUGAL / LPPC-LPPO FIR,33.2958333333,-16.3586111111,NAV PORTUGAL,2026-06-11,https://ais.nav.pt/wp-content/uploads/AIS_Files/eAIP_Current/eAIP_Online/eAIP/html/eAIP/LP-ENR-4.4-en-PT.html,
LAPTU,LAPTU,SIGNIFICANT_POINT,PORTUGAL / LPPC-LPPO FIR,25.0000000000,-25.0000000000,NAV PORTUGAL,2026-06-11,https://ais.nav.pt/wp-content/uploads/AIS_Files/eAIP_Current/eAIP_Online/eAIP/html/eAIP/LP-ENR-4.4-en-PT.html,
LASIB,LASIB,SIGNIFICANT_POINT,PORTUGAL / LPPC-LPPO FIR,38.0375000000,-7.2227777778,NAV PORTUGAL,2026-06-11,https://ais.nav.pt/wp-content/uploads/AIS_Files/eAIP_Current/eAIP_Online/eAIP/html/eAIP/LP-ENR-4.4-en-PT.html,
LATRU,LATRU,SIGNIFICANT_POINT,PORTUGAL / LPPC-LPPO FIR,37.0000000000,-10.0000000000,NAV PORTUGAL,2026-06-11,https://ais.nav.pt/wp-content/uploads/AIS_Files/eAIP_Current/eAIP_Online/eAIP/html/eAIP/LP-ENR-4.4-en-PT.html,
LAVPA,LAVPA,SIGNIFICANT_POINT,PORTUGAL / LPPC-LPPO FIR,41.0033333333,-9.1294444444,NAV PORTUGAL,2026-06-11,https://ais.nav.pt/wp-content/uploads/AIS_Files/eAIP_Current/eAIP_Online/eAIP/html/eAIP/LP-ENR-4.4-en-PT.html,
LAZET,LAZET,SIGNIFICANT_POINT,PORTUGAL / LPPC-LPPO FIR,38.9238888889,-10.6711111111,NAV PORTUGAL,2026-06-11,https://ais.nav.pt/wp-content/uploads/AIS_Files/eAIP_Current/eAIP_Online/eAIP/html/eAIP/LP-ENR-4.4-en-PT.html,
LEDBU,LEDBU,SIGNIFICANT_POINT,PORTUGAL / LPPC-LPPO FIR,38.3825000000,-28.4255555556,NAV PORTUGAL,2026-06-11,https://ais.nav.pt/wp-content/uploads/AIS_Files/eAIP_Current/eAIP_Online/eAIP/html/eAIP/LP-ENR-4.4-en-PT.html,
LEMGO,LEMGO,SIGNIFICANT_POINT,PORTUGAL / LPPC-LPPO FIR,37.1544444444,-25.2066666667,NAV PORTUGAL,2026-06-11,https://ais.nav.pt/wp-content/uploads/AIS_Files/eAIP_Current/eAIP_Online/eAIP/html/eAIP/LP-ENR-4.4-en-PT.html,
LEPRU,LEPRU,SIGNIFICANT_POINT,PORTUGAL / LPPC-LPPO FIR,32.0000000000,-14.8011111111,NAV PORTUGAL,2026-06-11,https://ais.nav.pt/wp-content/uploads/AIS_Files/eAIP_Current/eAIP_Online/eAIP/html/eAIP/LP-ENR-4.4-en-PT.html,
LERLI,LERLI,SIGNIFICANT_POINT,PORTUGAL / LPPC-LPPO FIR,39.2150000000,-9.0361111111,NAV PORTUGAL,2026-06-11,https://ais.nav.pt/wp-content/uploads/AIS_Files/eAIP_Current/eAIP_Online/eAIP/html/eAIP/LP-ENR-4.4-en-PT.html,
LEVDA,LEVDA,SIGNIFICANT_POINT,PORTUGAL / LPPC-LPPO FIR,37.7125000000,-25.6038888889,NAV PORTUGAL,2026-06-11,https://ais.nav.pt/wp-content/uploads/AIS_Files/eAIP_Current/eAIP_Online/eAIP/html/eAIP/LP-ENR-4.4-en-PT.html,
LIDRO,LIDRO,SIGNIFICANT_POINT,PORTUGAL / LPPC-LPPO FIR,33.6675000000,-15.9497222222,NAV PORTUGAL,2026-06-11,https://ais.nav.pt/wp-content/uploads/AIS_Files/eAIP_Current/eAIP_Online/eAIP/html/eAIP/LP-ENR-4.4-en-PT.html,
LIGRA,LIGRA,SIGNIFICANT_POINT,PORTUGAL / LPPC-LPPO FIR,38.0000000000,-9.5908333333,NAV PORTUGAL,2026-06-11,https://ais.nav.pt/wp-content/uploads/AIS_Files/eAIP_Current/eAIP_Online/eAIP/html/eAIP/LP-ENR-4.4-en-PT.html,
LISGU,LISGU,SIGNIFICANT_POINT,PORTUGAL / LPPC-LPPO FIR,38.8877777778,-9.1627777778,NAV PORTUGAL,2026-06-11,https://ais.nav.pt/wp-content/uploads/AIS_Files/eAIP_Current/eAIP_Online/eAIP/html/eAIP/LP-ENR-4.4-en-PT.html,
LIZHA,LIZHA,SIGNIFICANT_POINT,PORTUGAL / LPPC-LPPO FIR,38.5236111111,-27.0622222222,NAV PORTUGAL,2026-06-11,https://ais.nav.pt/wp-content/uploads/AIS_Files/eAIP_Current/eAIP_Online/eAIP/html/eAIP/LP-ENR-4.4-en-PT.html,
LUKAL,LUKAL,SIGNIFICANT_POINT,PORTUGAL / LPPC-LPPO FIR,41.2530555556,-32.3558333333,NAV PORTUGAL,2026-06-11,https://ais.nav.pt/wp-content/uploads/AIS_Files/eAIP_Current/eAIP_Online/eAIP/html/eAIP/LP-ENR-4.4-en-PT.html,
LUKAN,LUKAN,SIGNIFICANT_POINT,PORTUGAL / LPPC-LPPO FIR,33.4744444444,-14.9313888889,NAV PORTUGAL,2026-06-11,https://ais.nav.pt/wp-content/uploads/AIS_Files/eAIP_Current/eAIP_Online/eAIP/html/eAIP/LP-ENR-4.4-en-PT.html,
LUKIT,LUKIT,SIGNIFICANT_POINT,PORTUGAL / LPPC-LPPO FIR,40.1969444444,-30.0000000000,NAV PORTUGAL,2026-06-11,https://ais.nav.pt/wp-content/uploads/AIS_Files/eAIP_Current/eAIP_Online/eAIP/html/eAIP/LP-ENR-4.4-en-PT.html,
LULAS,LULAS,SIGNIFICANT_POINT,PORTUGAL / LPPC-LPPO FIR,40.8997222222,-9.2811111111,NAV PORTUGAL,2026-06-11,https://ais.nav.pt/wp-content/uploads/AIS_Files/eAIP_Current/eAIP_Online/eAIP/html/eAIP/LP-ENR-4.4-en-PT.html,
LUPOV,LUPOV,SIGNIFICANT_POINT,PORTUGAL / LPPC-LPPO FIR,42.0000000000,-15.0833333333,NAV PORTUGAL,2026-06-11,https://ais.nav.pt/wp-content/uploads/AIS_Files/eAIP_Current/eAIP_Online/eAIP/html/eAIP/LP-ENR-4.4-en-PT.html,
LUTAK,LUTAK,SIGNIFICANT_POINT,PORTUGAL / LPPC-LPPO FIR,37.0000000000,-15.0000000000,NAV PORTUGAL,2026-06-11,https://ais.nav.pt/wp-content/uploads/AIS_Files/eAIP_Current/eAIP_Online/eAIP/html/eAIP/LP-ENR-4.4-en-PT.html,
LUVUP,LUVUP,SIGNIFICANT_POINT,PORTUGAL / LPPC-LPPO FIR,37.7202777778,-10.1686111111,NAV PORTUGAL,2026-06-11,https://ais.nav.pt/wp-content/uploads/AIS_Files/eAIP_Current/eAIP_Online/eAIP/html/eAIP/LP-ENR-4.4-en-PT.html,
LUXUT,LUXUT,SIGNIFICANT_POINT,PORTUGAL / LPPC-LPPO FIR,37.9997222222,-9.0269444444,NAV PORTUGAL,2026-06-11,https://ais.nav.pt/wp-content/uploads/AIS_Files/eAIP_Current/eAIP_Online/eAIP/html/eAIP/LP-ENR-4.4-en-PT.html,
MADAT,MADAT,SIGNIFICANT_POINT,PORTUGAL / LPPC-LPPO FIR,32.1619444444,-17.0852777778,NAV PORTUGAL,2026-06-11,https://ais.nav.pt/wp-content/uploads/AIS_Files/eAIP_Current/eAIP_Online/eAIP/html/eAIP/LP-ENR-4.4-en-PT.html,
MAGUM,MAGUM,SIGNIFICANT_POINT,PORTUGAL / LPPC-LPPO FIR,39.1675000000,-8.3925000000,NAV PORTUGAL,2026-06-11,https://ais.nav.pt/wp-content/uploads/AIS_Files/eAIP_Current/eAIP_Online/eAIP/html/eAIP/LP-ENR-4.4-en-PT.html,
MALIS,MALIS,SIGNIFICANT_POINT,PORTUGAL / LPPC-LPPO FIR,41.8555555556,-7.6047222222,NAV PORTUGAL,2026-06-11,https://ais.nav.pt/wp-content/uploads/AIS_Files/eAIP_Current/eAIP_Online/eAIP/html/eAIP/LP-ENR-4.4-en-PT.html,
MANEL,MANEL,SIGNIFICANT_POINT,PORTUGAL / LPPC-LPPO FIR,38.6500000000,-8.9472222222,NAV PORTUGAL,2026-06-11,https://ais.nav.pt/wp-content/uploads/AIS_Files/eAIP_Current/eAIP_Online/eAIP/html/eAIP/LP-ENR-4.4-en-PT.html,
MANIK,MANIK,SIGNIFICANT_POINT,PORTUGAL / LPPC-LPPO FIR,40.6919444444,-8.6161111111,NAV PORTUGAL,2026-06-11,https://ais.nav.pt/wp-content/uploads/AIS_Files/eAIP_Current/eAIP_Online/eAIP/html/eAIP/LP-ENR-4.4-en-PT.html,
MANOX,MANOX,SIGNIFICANT_POINT,PORTUGAL / LPPC-LPPO FIR,36.1944444444,-15.3902777778,NAV PORTUGAL,2026-06-11,https://ais.nav.pt/wp-content/uploads/AIS_Files/eAIP_Current/eAIP_Online/eAIP/html/eAIP/LP-ENR-4.4-en-PT.html,
MAPOR,MAPOR,SIGNIFICANT_POINT,PORTUGAL / LPPC-LPPO FIR,41.6141666667,-8.0583333333,NAV PORTUGAL,2026-06-11,https://ais.nav.pt/wp-content/uploads/AIS_Files/eAIP_Current/eAIP_Online/eAIP/html/eAIP/LP-ENR-4.4-en-PT.html,
MARCU,MARCU,SIGNIFICANT_POINT,PORTUGAL / LPPC-LPPO FIR,32.8511111111,-16.3411111111,NAV PORTUGAL,2026-06-11,https://ais.nav.pt/wp-content/uploads/AIS_Files/eAIP_Current/eAIP_Online/eAIP/html/eAIP/LP-ENR-4.4-en-PT.html,
MARIM,MARIM,SIGNIFICANT_POINT,PORTUGAL / LPPC-LPPO FIR,37.4166666667,-7.8411111111,NAV PORTUGAL,2026-06-11,https://ais.nav.pt/wp-content/uploads/AIS_Files/eAIP_Current/eAIP_Online/eAIP/html/eAIP/LP-ENR-4.4-en-PT.html,
MARUM,MARUM,SIGNIFICANT_POINT,PORTUGAL / LPPC-LPPO FIR,36.6222222222,-13.4377777778,NAV PORTUGAL,2026-06-11,https://ais.nav.pt/wp-content/uploads/AIS_Files/eAIP_Current/eAIP_Online/eAIP/html/eAIP/LP-ENR-4.4-en-PT.html,
MASID,MASID,SIGNIFICANT_POINT,PORTUGAL / LPPC-LPPO FIR,38.7475000000,-27.0758333333,NAV PORTUGAL,2026-06-11,https://ais.nav.pt/wp-content/uploads/AIS_Files/eAIP_Current/eAIP_Online/eAIP/html/eAIP/LP-ENR-4.4-en-PT.html,
MAZUK,MAZUK,SIGNIFICANT_POINT,PORTUGAL / LPPC-LPPO FIR,38.5938888889,-9.5541666667,NAV PORTUGAL,2026-06-11,https://ais.nav.pt/wp-content/uploads/AIS_Files/eAIP_Current/eAIP_Online/eAIP/html/eAIP/LP-ENR-4.4-en-PT.html,
MIGFO,MIGFO,SIGNIFICANT_POINT,PORTUGAL / LPPC-LPPO FIR,38.3472222222,-9.3658333333,NAV PORTUGAL,2026-06-11,https://ais.nav.pt/wp-content/uploads/AIS_Files/eAIP_Current/eAIP_Online/eAIP/html/eAIP/LP-ENR-4.4-en-PT.html,
MIMBO,MIMBO,SIGNIFICANT_POINT,PORTUGAL / LPPC-LPPO FIR,41.5708333333,-11.3772222222,NAV PORTUGAL,2026-06-11,https://ais.nav.pt/wp-content/uploads/AIS_Files/eAIP_Current/eAIP_Online/eAIP/html/eAIP/LP-ENR-4.4-en-PT.html,
MINTA,MINTA,SIGNIFICANT_POINT,PORTUGAL / LPPC-LPPO FIR,37.1288888889,-7.3833333333,NAV PORTUGAL,2026-06-11,https://ais.nav.pt/wp-content/uploads/AIS_Files/eAIP_Current/eAIP_Online/eAIP/html/eAIP/LP-ENR-4.4-en-PT.html,
MIPRU,MIPRU,SIGNIFICANT_POINT,PORTUGAL / LPPC-LPPO FIR,38.2736111111,-26.3647222222,NAV PORTUGAL,2026-06-11,https://ais.nav.pt/wp-content/uploads/AIS_Files/eAIP_Current/eAIP_Online/eAIP/html/eAIP/LP-ENR-4.4-en-PT.html,
MOMAS,MOMAS,SIGNIFICANT_POINT,PORTUGAL / LPPC-LPPO FIR,39.3191666667,-8.0166666667,NAV PORTUGAL,2026-06-11,https://ais.nav.pt/wp-content/uploads/AIS_Files/eAIP_Current/eAIP_Online/eAIP/html/eAIP/LP-ENR-4.4-en-PT.html,
MONEC,MONEC,SIGNIFICANT_POINT,PORTUGAL / LPPC-LPPO FIR,32.4563888889,-16.8302777778,NAV PORTUGAL,2026-06-11,https://ais.nav.pt/wp-content/uploads/AIS_Files/eAIP_Current/eAIP_Online/eAIP/html/eAIP/LP-ENR-4.4-en-PT.html,
MORAS,MORAS,SIGNIFICANT_POINT,PORTUGAL / LPPC-LPPO FIR,39.1638888889,-8.0186111111,NAV PORTUGAL,2026-06-11,https://ais.nav.pt/wp-content/uploads/AIS_Files/eAIP_Current/eAIP_Online/eAIP/html/eAIP/LP-ENR-4.4-en-PT.html,
MOSEN,MOSEN,SIGNIFICANT_POINT,PORTUGAL / LPPC-LPPO FIR,41.7866666667,-6.5608333333,NAV PORTUGAL,2026-06-11,https://ais.nav.pt/wp-content/uploads/AIS_Files/eAIP_Current/eAIP_Online/eAIP/html/eAIP/LP-ENR-4.4-en-PT.html,
MUDOS,MUDOS,SIGNIFICANT_POINT,PORTUGAL / LPPC-LPPO FIR,43.5000000000,-13.0000000000,NAV PORTUGAL,2026-06-11,https://ais.nav.pt/wp-content/uploads/AIS_Files/eAIP_Current/eAIP_Online/eAIP/html/eAIP/LP-ENR-4.4-en-PT.html,
NADHI,NADHI,SIGNIFICANT_POINT,PORTUGAL / LPPC-LPPO FIR,36.7766666667,-25.2375000000,NAV PORTUGAL,2026-06-11,https://ais.nav.pt/wp-content/uploads/AIS_Files/eAIP_Current/eAIP_Online/eAIP/html/eAIP/LP-ENR-4.4-en-PT.html,
NAKOS,NAKOS,SIGNIFICANT_POINT,PORTUGAL / LPPC-LPPO FIR,38.0000000000,-9.3344444444,NAV PORTUGAL,2026-06-11,https://ais.nav.pt/wp-content/uploads/AIS_Files/eAIP_Current/eAIP_Online/eAIP/html/eAIP/LP-ENR-4.4-en-PT.html,
NARBO,NARBO,SIGNIFICANT_POINT,PORTUGAL / LPPC-LPPO FIR,42.1397222222,-8.2283333333,NAV PORTUGAL,2026-06-11,https://ais.nav.pt/wp-content/uploads/AIS_Files/eAIP_Current/eAIP_Online/eAIP/html/eAIP/LP-ENR-4.4-en-PT.html,
NARTA,NARTA,SIGNIFICANT_POINT,PORTUGAL / LPPC-LPPO FIR,36.0563888889,-12.5580555556,NAV PORTUGAL,2026-06-11,https://ais.nav.pt/wp-content/uploads/AIS_Files/eAIP_Current/eAIP_Online/eAIP/html/eAIP/LP-ENR-4.4-en-PT.html,
NASAS,NASAS,SIGNIFICANT_POINT,PORTUGAL / LPPC-LPPO FIR,36.3255555556,-12.9733333333,NAV PORTUGAL,2026-06-11,https://ais.nav.pt/wp-content/uploads/AIS_Files/eAIP_Current/eAIP_Online/eAIP/html/eAIP/LP-ENR-4.4-en-PT.html,
NATID,NATID,SIGNIFICANT_POINT,PORTUGAL / LPPC-LPPO FIR,38.8816666667,-9.5477777778,NAV PORTUGAL,2026-06-11,https://ais.nav.pt/wp-content/uploads/AIS_Files/eAIP_Current/eAIP_Online/eAIP/html/eAIP/LP-ENR-4.4-en-PT.html,
NAVIX,NAVIX,SIGNIFICANT_POINT,PORTUGAL / LPPC-LPPO FIR,35.5205555556,-16.2344444444,NAV PORTUGAL,2026-06-11,https://ais.nav.pt/wp-content/uploads/AIS_Files/eAIP_Current/eAIP_Online/eAIP/html/eAIP/LP-ENR-4.4-en-PT.html,
NAVPO,NAVPO,SIGNIFICANT_POINT,PORTUGAL / LPPC-LPPO FIR,37.6211111111,-25.3163888889,NAV PORTUGAL,2026-06-11,https://ais.nav.pt/wp-content/uploads/AIS_Files/eAIP_Current/eAIP_Online/eAIP/html/eAIP/LP-ENR-4.4-en-PT.html,
NEGRI,NEGRI,SIGNIFICANT_POINT,PORTUGAL / LPPC-LPPO FIR,38.8786111111,-13.4044444444,NAV PORTUGAL,2026-06-11,https://ais.nav.pt/wp-content/uploads/AIS_Files/eAIP_Current/eAIP_Online/eAIP/html/eAIP/LP-ENR-4.4-en-PT.html,
NELSO,NELSO,SIGNIFICANT_POINT,PORTUGAL / LPPC-LPPO FIR,31.6830555556,-17.4569444444,NAV PORTUGAL,2026-06-11,https://ais.nav.pt/wp-content/uploads/AIS_Files/eAIP_Current/eAIP_Online/eAIP/html/eAIP/LP-ENR-4.4-en-PT.html,
NESDU,NESDU,SIGNIFICANT_POINT,PORTUGAL / LPPC-LPPO FIR,39.0516666667,-28.2627777778,NAV PORTUGAL,2026-06-11,https://ais.nav.pt/wp-content/uploads/AIS_Files/eAIP_Current/eAIP_Online/eAIP/html/eAIP/LP-ENR-4.4-en-PT.html,
NETID,NETID,SIGNIFICANT_POINT,PORTUGAL / LPPC-LPPO FIR,37.6663888889,-25.9802777778,NAV PORTUGAL,2026-06-11,https://ais.nav.pt/wp-content/uploads/AIS_Files/eAIP_Current/eAIP_Online/eAIP/html/eAIP/LP-ENR-4.4-en-PT.html,
NETOS,NETOS,SIGNIFICANT_POINT,PORTUGAL / LPPC-LPPO FIR,41.3075000000,-6.2777777778,NAV PORTUGAL,2026-06-11,https://ais.nav.pt/wp-content/uploads/AIS_Files/eAIP_Current/eAIP_Online/eAIP/html/eAIP/LP-ENR-4.4-en-PT.html,
NETVO,NETVO,SIGNIFICANT_POINT,PORTUGAL / LPPC-LPPO FIR,38.6400000000,-9.2113888889,NAV PORTUGAL,2026-06-11,https://ais.nav.pt/wp-content/uploads/AIS_Files/eAIP_Current/eAIP_Online/eAIP/html/eAIP/LP-ENR-4.4-en-PT.html,
NEVUD,NEVUD,SIGNIFICANT_POINT,PORTUGAL / LPPC-LPPO FIR,38.5677777778,-9.3136111111,NAV PORTUGAL,2026-06-11,https://ais.nav.pt/wp-content/uploads/AIS_Files/eAIP_Current/eAIP_Online/eAIP/html/eAIP/LP-ENR-4.4-en-PT.html,
NEXUX,NEXUX,SIGNIFICANT_POINT,PORTUGAL / LPPC-LPPO FIR,30.0000000000,-21.0000000000,NAV PORTUGAL,2026-06-11,https://ais.nav.pt/wp-content/uploads/AIS_Files/eAIP_Current/eAIP_Online/eAIP/html/eAIP/LP-ENR-4.4-en-PT.html,
NIDOF,NIDOF,SIGNIFICANT_POINT,PORTUGAL / LPPC-LPPO FIR,39.6883333333,-31.3141666667,NAV PORTUGAL,2026-06-11,https://ais.nav.pt/wp-content/uploads/AIS_Files/eAIP_Current/eAIP_Online/eAIP/html/eAIP/LP-ENR-4.4-en-PT.html,
NIDUL,NIDUL,SIGNIFICANT_POINT,PORTUGAL / LPPC-LPPO FIR,32.3652777778,-17.3530555556,NAV PORTUGAL,2026-06-11,https://ais.nav.pt/wp-content/uploads/AIS_Files/eAIP_Current/eAIP_Online/eAIP/html/eAIP/LP-ENR-4.4-en-PT.html,
NIKED,NIKED,SIGNIFICANT_POINT,PORTUGAL / LPPC-LPPO FIR,37.4416666667,-8.4719444444,NAV PORTUGAL,2026-06-11,https://ais.nav.pt/wp-content/uploads/AIS_Files/eAIP_Current/eAIP_Online/eAIP/html/eAIP/LP-ENR-4.4-en-PT.html,
NILAV,NILAV,SIGNIFICANT_POINT,PORTUGAL / LPPC-LPPO FIR,45.0000000000,-13.4166666667,NAV PORTUGAL,2026-06-11,https://ais.nav.pt/wp-content/uploads/AIS_Files/eAIP_Current/eAIP_Online/eAIP/html/eAIP/LP-ENR-4.4-en-PT.html,
NILDA,NILDA,SIGNIFICANT_POINT,PORTUGAL / LPPC-LPPO FIR,38.6841666667,-27.0097222222,NAV PORTUGAL,2026-06-11,https://ais.nav.pt/wp-content/uploads/AIS_Files/eAIP_Current/eAIP_Online/eAIP/html/eAIP/LP-ENR-4.4-en-PT.html,
NINOS,NINOS,SIGNIFICANT_POINT,PORTUGAL / LPPC-LPPO FIR,41.1297222222,-6.7772222222,NAV PORTUGAL,2026-06-11,https://ais.nav.pt/wp-content/uploads/AIS_Files/eAIP_Current/eAIP_Online/eAIP/html/eAIP/LP-ENR-4.4-en-PT.html,
NIPRI,NIPRI,SIGNIFICANT_POINT,PORTUGAL / LPPC-LPPO FIR,33.0000000000,-14.1233333333,NAV PORTUGAL,2026-06-11,https://ais.nav.pt/wp-content/uploads/AIS_Files/eAIP_Current/eAIP_Online/eAIP/html/eAIP/LP-ENR-4.4-en-PT.html,
NIRAK,NIRAK,SIGNIFICANT_POINT,PORTUGAL / LPPC-LPPO FIR,37.2458333333,-7.4286111111,NAV PORTUGAL,2026-06-11,https://ais.nav.pt/wp-content/uploads/AIS_Files/eAIP_Current/eAIP_Online/eAIP/html/eAIP/LP-ENR-4.4-en-PT.html,
NITEZ,NITEZ,SIGNIFICANT_POINT,PORTUGAL / LPPC-LPPO FIR,37.1361111111,-25.7622222222,NAV PORTUGAL,2026-06-11,https://ais.nav.pt/wp-content/uploads/AIS_Files/eAIP_Current/eAIP_Online/eAIP/html/eAIP/LP-ENR-4.4-en-PT.html,
NOJAK,NOJAK,SIGNIFICANT_POINT,PORTUGAL / LPPC-LPPO FIR,38.4361111111,-28.8144444444,NAV PORTUGAL,2026-06-11,https://ais.nav.pt/wp-content/uploads/AIS_Files/eAIP_Current/eAIP_Online/eAIP/html/eAIP/LP-ENR-4.4-en-PT.html,
NOKSO,NOKSO,SIGNIFICANT_POINT,PORTUGAL / LPPC-LPPO FIR,37.0838888889,-8.9463888889,NAV PORTUGAL,2026-06-11,https://ais.nav.pt/wp-content/uploads/AIS_Files/eAIP_Current/eAIP_Online/eAIP/html/eAIP/LP-ENR-4.4-en-PT.html,
NORCA,NORCA,SIGNIFICANT_POINT,PORTUGAL / LPPC-LPPO FIR,37.2805555556,-24.6769444444,NAV PORTUGAL,2026-06-11,https://ais.nav.pt/wp-content/uploads/AIS_Files/eAIP_Current/eAIP_Online/eAIP/html/eAIP/LP-ENR-4.4-en-PT.html,
NOTMA,NOTMA,SIGNIFICANT_POINT,PORTUGAL / LPPC-LPPO FIR,38.8125000000,-28.0561111111,NAV PORTUGAL,2026-06-11,https://ais.nav.pt/wp-content/uploads/AIS_Files/eAIP_Current/eAIP_Online/eAIP/html/eAIP/LP-ENR-4.4-en-PT.html,
NUMGI,NUMGI,SIGNIFICANT_POINT,PORTUGAL / LPPC-LPPO FIR,18.4638888889,-38.1727777778,NAV PORTUGAL,2026-06-11,https://ais.nav.pt/wp-content/uploads/AIS_Files/eAIP_Current/eAIP_Online/eAIP/html/eAIP/LP-ENR-4.4-en-PT.html,
OBESA,OBESA,SIGNIFICANT_POINT,PORTUGAL / LPPC-LPPO FIR,36.6572222222,-14.2458333333,NAV PORTUGAL,2026-06-11,https://ais.nav.pt/wp-content/uploads/AIS_Files/eAIP_Current/eAIP_Online/eAIP/html/eAIP/LP-ENR-4.4-en-PT.html,
OBOLO,OBOLO,SIGNIFICANT_POINT,PORTUGAL / LPPC-LPPO FIR,36.5313888889,-8.1325000000,NAV PORTUGAL,2026-06-11,https://ais.nav.pt/wp-content/uploads/AIS_Files/eAIP_Current/eAIP_Online/eAIP/html/eAIP/LP-ENR-4.4-en-PT.html,
OBOMO,OBOMO,SIGNIFICANT_POINT,PORTUGAL / LPPC-LPPO FIR,22.7208333333,-27.5055555556,NAV PORTUGAL,2026-06-11,https://ais.nav.pt/wp-content/uploads/AIS_Files/eAIP_Current/eAIP_Online/eAIP/html/eAIP/LP-ENR-4.4-en-PT.html,
OBUDA,OBUDA,SIGNIFICANT_POINT,PORTUGAL / LPPC-LPPO FIR,39.1136111111,-31.0327777778,NAV PORTUGAL,2026-06-11,https://ais.nav.pt/wp-content/uploads/AIS_Files/eAIP_Current/eAIP_Online/eAIP/html/eAIP/LP-ENR-4.4-en-PT.html,
ODAKI,ODAKI,SIGNIFICANT_POINT,PORTUGAL / LPPC-LPPO FIR,38.5044444444,-26.8230555556,NAV PORTUGAL,2026-06-11,https://ais.nav.pt/wp-content/uploads/AIS_Files/eAIP_Current/eAIP_Online/eAIP/html/eAIP/LP-ENR-4.4-en-PT.html,
ODEMI,ODEMI,SIGNIFICANT_POINT,PORTUGAL / LPPC-LPPO FIR,37.4975000000,-8.3838888889,NAV PORTUGAL,2026-06-11,https://ais.nav.pt/wp-content/uploads/AIS_Files/eAIP_Current/eAIP_Online/eAIP/html/eAIP/LP-ENR-4.4-en-PT.html,
ODITU,ODITU,SIGNIFICANT_POINT,PORTUGAL / LPPC-LPPO FIR,38.4511111111,-27.9702777778,NAV PORTUGAL,2026-06-11,https://ais.nav.pt/wp-content/uploads/AIS_Files/eAIP_Current/eAIP_Online/eAIP/html/eAIP/LP-ENR-4.4-en-PT.html,
ODLIX,ODLIX,SIGNIFICANT_POINT,PORTUGAL / LPPC-LPPO FIR,38.6788888889,-9.3172222222,NAV PORTUGAL,2026-06-11,https://ais.nav.pt/wp-content/uploads/AIS_Files/eAIP_Current/eAIP_Online/eAIP/html/eAIP/LP-ENR-4.4-en-PT.html,
ODPAK,ODPAK,SIGNIFICANT_POINT,PORTUGAL / LPPC-LPPO FIR,38.1283333333,-7.9266666667,NAV PORTUGAL,2026-06-11,https://ais.nav.pt/wp-content/uploads/AIS_Files/eAIP_Current/eAIP_Online/eAIP/html/eAIP/LP-ENR-4.4-en-PT.html,
OGDOR,OGDOR,SIGNIFICANT_POINT,PORTUGAL / LPPC-LPPO FIR,34.0000000000,-13.4272222222,NAV PORTUGAL,2026-06-11,https://ais.nav.pt/wp-content/uploads/AIS_Files/eAIP_Current/eAIP_Online/eAIP/html/eAIP/LP-ENR-4.4-en-PT.html,
OGERO,OGERO,SIGNIFICANT_POINT,PORTUGAL / LPPC-LPPO FIR,39.8016666667,-6.4005555556,NAV PORTUGAL,2026-06-11,https://ais.nav.pt/wp-content/uploads/AIS_Files/eAIP_Current/eAIP_Online/eAIP/html/eAIP/LP-ENR-4.4-en-PT.html,
OKARI,OKARI,SIGNIFICANT_POINT,PORTUGAL / LPPC-LPPO FIR,36.4486111111,-8.1591666667,NAV PORTUGAL,2026-06-11,https://ais.nav.pt/wp-content/uploads/AIS_Files/eAIP_Current/eAIP_Online/eAIP/html/eAIP/LP-ENR-4.4-en-PT.html,
OKNIB,OKNIB,SIGNIFICANT_POINT,PORTUGAL / LPPC-LPPO FIR,38.7022222222,-9.1786111111,NAV PORTUGAL,2026-06-11,https://ais.nav.pt/wp-content/uploads/AIS_Files/eAIP_Current/eAIP_Online/eAIP/html/eAIP/LP-ENR-4.4-en-PT.html,
OLBOD,OLBOD,SIGNIFICANT_POINT,PORTUGAL / LPPC-LPPO FIR,38.1438888889,-10.6711111111,NAV PORTUGAL,2026-06-11,https://ais.nav.pt/wp-content/uploads/AIS_Files/eAIP_Current/eAIP_Online/eAIP/html/eAIP/LP-ENR-4.4-en-PT.html,
OLDEK,OLDEK,SIGNIFICANT_POINT,PORTUGAL / LPPC-LPPO FIR,38.3155555556,-28.4391666667,NAV PORTUGAL,2026-06-11,https://ais.nav.pt/wp-content/uploads/AIS_Files/eAIP_Current/eAIP_Online/eAIP/html/eAIP/LP-ENR-4.4-en-PT.html,
OLGAR,OLGAR,SIGNIFICANT_POINT,PORTUGAL / LPPC-LPPO FIR,39.1833333333,-7.9363888889,NAV PORTUGAL,2026-06-11,https://ais.nav.pt/wp-content/uploads/AIS_Files/eAIP_Current/eAIP_Online/eAIP/html/eAIP/LP-ENR-4.4-en-PT.html,
OMOBI,OMOBI,SIGNIFICANT_POINT,PORTUGAL / LPPC-LPPO FIR,37.8905555556,-24.8127777778,NAV PORTUGAL,2026-06-11,https://ais.nav.pt/wp-content/uploads/AIS_Files/eAIP_Current/eAIP_Online/eAIP/html/eAIP/LP-ENR-4.4-en-PT.html,
ONICA,ONICA,SIGNIFICANT_POINT,PORTUGAL / LPPC-LPPO FIR,38.3741666667,-28.3600000000,NAV PORTUGAL,2026-06-11,https://ais.nav.pt/wp-content/uploads/AIS_Files/eAIP_Current/eAIP_Online/eAIP/html/eAIP/LP-ENR-4.4-en-PT.html,
ORPIC,ORPIC,SIGNIFICANT_POINT,PORTUGAL / LPPC-LPPO FIR,38.5872222222,-28.1119444444,NAV PORTUGAL,2026-06-11,https://ais.nav.pt/wp-content/uploads/AIS_Files/eAIP_Current/eAIP_Online/eAIP/html/eAIP/LP-ENR-4.4-en-PT.html,
ORSOS,ORSOS,SIGNIFICANT_POINT,PORTUGAL / LPPC-LPPO FIR,39.0000000000,-10.2088888889,NAV PORTUGAL,2026-06-11,https://ais.nav.pt/wp-content/uploads/AIS_Files/eAIP_Current/eAIP_Online/eAIP/html/eAIP/LP-ENR-4.4-en-PT.html,
ORTIS,ORTIS,SIGNIFICANT_POINT,PORTUGAL / LPPC-LPPO FIR,31.4069444444,-16.5569444444,NAV PORTUGAL,2026-06-11,https://ais.nav.pt/wp-content/uploads/AIS_Files/eAIP_Current/eAIP_Online/eAIP/html/eAIP/LP-ENR-4.4-en-PT.html,
ORTOP,ORTOP,SIGNIFICANT_POINT,PORTUGAL / LPPC-LPPO FIR,36.0266666667,-7.3833333333,NAV PORTUGAL,2026-06-11,https://ais.nav.pt/wp-content/uploads/AIS_Files/eAIP_Current/eAIP_Online/eAIP/html/eAIP/LP-ENR-4.4-en-PT.html,
ORTUG,ORTUG,SIGNIFICANT_POINT,PORTUGAL / LPPC-LPPO FIR,38.4038888889,-8.9961111111,NAV PORTUGAL,2026-06-11,https://ais.nav.pt/wp-content/uploads/AIS_Files/eAIP_Current/eAIP_Online/eAIP/html/eAIP/LP-ENR-4.4-en-PT.html,
ORVED,ORVED,SIGNIFICANT_POINT,PORTUGAL / LPPC-LPPO FIR,39.3833333333,-7.6519444444,NAV PORTUGAL,2026-06-11,https://ais.nav.pt/wp-content/uploads/AIS_Files/eAIP_Current/eAIP_Online/eAIP/html/eAIP/LP-ENR-4.4-en-PT.html,
OSDAP,OSDAP,SIGNIFICANT_POINT,PORTUGAL / LPPC-LPPO FIR,38.4944444444,-27.8463888889,NAV PORTUGAL,2026-06-11,https://ais.nav.pt/wp-content/uploads/AIS_Files/eAIP_Current/eAIP_Online/eAIP/html/eAIP/LP-ENR-4.4-en-PT.html,
OSLAD,OSLAD,SIGNIFICANT_POINT,PORTUGAL / LPPC-LPPO FIR,35.9666666667,-8.3141666667,NAV PORTUGAL,2026-06-11,https://ais.nav.pt/wp-content/uploads/AIS_Files/eAIP_Current/eAIP_Online/eAIP/html/eAIP/LP-ENR-4.4-en-PT.html,
OSLEV,OSLEV,SIGNIFICANT_POINT,PORTUGAL / LPPC-LPPO FIR,30.0000000000,-22.0000000000,NAV PORTUGAL,2026-06-11,https://ais.nav.pt/wp-content/uploads/AIS_Files/eAIP_Current/eAIP_Online/eAIP/html/eAIP/LP-ENR-4.4-en-PT.html,
OTREG,OTREG,SIGNIFICANT_POINT,PORTUGAL / LPPC-LPPO FIR,41.2730555556,-8.6877777778,NAV PORTUGAL,2026-06-11,https://ais.nav.pt/wp-content/uploads/AIS_Files/eAIP_Current/eAIP_Online/eAIP/html/eAIP/LP-ENR-4.4-en-PT.html,
OTZIL,OTZIL,SIGNIFICANT_POINT,PORTUGAL / LPPC-LPPO FIR,33.0902777778,-16.3505555556,NAV PORTUGAL,2026-06-11,https://ais.nav.pt/wp-content/uploads/AIS_Files/eAIP_Current/eAIP_Online/eAIP/html/eAIP/LP-ENR-4.4-en-PT.html,
OXFIN,OXFIN,SIGNIFICANT_POINT,PORTUGAL / LPPC-LPPO FIR,38.5744444444,-9.3005555556,NAV PORTUGAL,2026-06-11,https://ais.nav.pt/wp-content/uploads/AIS_Files/eAIP_Current/eAIP_Online/eAIP/html/eAIP/LP-ENR-4.4-en-PT.html,
PARAV,PARAV,SIGNIFICANT_POINT,PORTUGAL / LPPC-LPPO FIR,40.9475000000,-11.8566666667,NAV PORTUGAL,2026-06-11,https://ais.nav.pt/wp-content/uploads/AIS_Files/eAIP_Current/eAIP_Online/eAIP/html/eAIP/LP-ENR-4.4-en-PT.html,
PASAS,PASAS,SIGNIFICANT_POINT,PORTUGAL / LPPC-LPPO FIR,45.0000000000,-13.0000000000,NAV PORTUGAL,2026-06-11,https://ais.nav.pt/wp-content/uploads/AIS_Files/eAIP_Current/eAIP_Online/eAIP/html/eAIP/LP-ENR-4.4-en-PT.html,
PECKY,PECKY,SIGNIFICANT_POINT,PORTUGAL / LPPC-LPPO FIR,34.5302777778,-15.3377777778,NAV PORTUGAL,2026-06-11,https://ais.nav.pt/wp-content/uploads/AIS_Files/eAIP_Current/eAIP_Online/eAIP/html/eAIP/LP-ENR-4.4-en-PT.html,
PELUS,PELUS,SIGNIFICANT_POINT,PORTUGAL / LPPC-LPPO FIR,33.4452777778,-17.0711111111,NAV PORTUGAL,2026-06-11,https://ais.nav.pt/wp-content/uploads/AIS_Files/eAIP_Current/eAIP_Online/eAIP/html/eAIP/LP-ENR-4.4-en-PT.html,
PESAS,PESAS,SIGNIFICANT_POINT,PORTUGAL / LPPC-LPPO FIR,37.0366666667,-7.3833333333,NAV PORTUGAL,2026-06-11,https://ais.nav.pt/wp-content/uploads/AIS_Files/eAIP_Current/eAIP_Online/eAIP/html/eAIP/LP-ENR-4.4-en-PT.html,
PESEX,PESEX,SIGNIFICANT_POINT,PORTUGAL / LPPC-LPPO FIR,38.5922222222,-9.2369444444,NAV PORTUGAL,2026-06-11,https://ais.nav.pt/wp-content/uploads/AIS_Files/eAIP_Current/eAIP_Online/eAIP/html/eAIP/LP-ENR-4.4-en-PT.html,
PESUL,PESUL,SIGNIFICANT_POINT,PORTUGAL / LPPC-LPPO FIR,40.8819444444,-8.1150000000,NAV PORTUGAL,2026-06-11,https://ais.nav.pt/wp-content/uploads/AIS_Files/eAIP_Current/eAIP_Online/eAIP/html/eAIP/LP-ENR-4.4-en-PT.html,
PETEK,PETEK,SIGNIFICANT_POINT,PORTUGAL / LPPC-LPPO FIR,42.6788888889,-12.0000000000,NAV PORTUGAL,2026-06-11,https://ais.nav.pt/wp-content/uploads/AIS_Files/eAIP_Current/eAIP_Online/eAIP/html/eAIP/LP-ENR-4.4-en-PT.html,
PETUD,PETUD,SIGNIFICANT_POINT,PORTUGAL / LPPC-LPPO FIR,37.4986111111,-25.8055555556,NAV PORTUGAL,2026-06-11,https://ais.nav.pt/wp-content/uploads/AIS_Files/eAIP_Current/eAIP_Online/eAIP/html/eAIP/LP-ENR-4.4-en-PT.html,
PEVAP,PEVAP,SIGNIFICANT_POINT,PORTUGAL / LPPC-LPPO FIR,35.2469444444,-14.8183333333,NAV PORTUGAL,2026-06-11,https://ais.nav.pt/wp-content/uploads/AIS_Files/eAIP_Current/eAIP_Online/eAIP/html/eAIP/LP-ENR-4.4-en-PT.html,
PIBIL,PIBIL,SIGNIFICANT_POINT,PORTUGAL / LPPC-LPPO FIR,30.0000000000,-23.0000000000,NAV PORTUGAL,2026-06-11,https://ais.nav.pt/wp-content/uploads/AIS_Files/eAIP_Current/eAIP_Online/eAIP/html/eAIP/LP-ENR-4.4-en-PT.html,
PIGOR,PIGOR,SIGNIFICANT_POINT,PORTUGAL / LPPC-LPPO FIR,39.4672222222,-13.8213888889,NAV PORTUGAL,2026-06-11,https://ais.nav.pt/wp-content/uploads/AIS_Files/eAIP_Current/eAIP_Online/eAIP/html/eAIP/LP-ENR-4.4-en-PT.html,
PIKIX,PIKIX,SIGNIFICANT_POINT,PORTUGAL / LPPC-LPPO FIR,38.7775000000,-28.5338888889,NAV PORTUGAL,2026-06-11,https://ais.nav.pt/wp-content/uploads/AIS_Files/eAIP_Current/eAIP_Online/eAIP/html/eAIP/LP-ENR-4.4-en-PT.html,
PILIM,PILIM,SIGNIFICANT_POINT,PORTUGAL / LPPC-LPPO FIR,32.8541666667,-16.5913888889,NAV PORTUGAL,2026-06-11,https://ais.nav.pt/wp-content/uploads/AIS_Files/eAIP_Current/eAIP_Online/eAIP/html/eAIP/LP-ENR-4.4-en-PT.html,
PINEK,PINEK,SIGNIFICANT_POINT,PORTUGAL / LPPC-LPPO FIR,41.8511111111,-8.5977777778,NAV PORTUGAL,2026-06-11,https://ais.nav.pt/wp-content/uploads/AIS_Files/eAIP_Current/eAIP_Online/eAIP/html/eAIP/LP-ENR-4.4-en-PT.html,
PINOX,PINOX,SIGNIFICANT_POINT,PORTUGAL / LPPC-LPPO FIR,40.2905555556,-7.1091666667,NAV PORTUGAL,2026-06-11,https://ais.nav.pt/wp-content/uploads/AIS_Files/eAIP_Current/eAIP_Online/eAIP/html/eAIP/LP-ENR-4.4-en-PT.html,
PIREN,PIREN,SIGNIFICANT_POINT,PORTUGAL / LPPC-LPPO FIR,36.8333333333,-7.3833333333,NAV PORTUGAL,2026-06-11,https://ais.nav.pt/wp-content/uploads/AIS_Files/eAIP_Current/eAIP_Online/eAIP/html/eAIP/LP-ENR-4.4-en-PT.html,
PIXED,PIXED,SIGNIFICANT_POINT,PORTUGAL / LPPC-LPPO FIR,24.0000000000,-25.0000000000,NAV PORTUGAL,2026-06-11,https://ais.nav.pt/wp-content/uploads/AIS_Files/eAIP_Current/eAIP_Online/eAIP/html/eAIP/LP-ENR-4.4-en-PT.html,
PODEL,PODEL,SIGNIFICANT_POINT,PORTUGAL / LPPC-LPPO FIR,37.6169444444,-25.6997222222,NAV PORTUGAL,2026-06-11,https://ais.nav.pt/wp-content/uploads/AIS_Files/eAIP_Current/eAIP_Online/eAIP/html/eAIP/LP-ENR-4.4-en-PT.html,
PORTA,PORTA,SIGNIFICANT_POINT,PORTUGAL / LPPC-LPPO FIR,39.3300000000,-7.3025000000,NAV PORTUGAL,2026-06-11,https://ais.nav.pt/wp-content/uploads/AIS_Files/eAIP_Current/eAIP_Online/eAIP/html/eAIP/LP-ENR-4.4-en-PT.html,
RAKOD,RAKOD,SIGNIFICANT_POINT,PORTUGAL / LPPC-LPPO FIR,39.7808333333,-6.6286111111,NAV PORTUGAL,2026-06-11,https://ais.nav.pt/wp-content/uploads/AIS_Files/eAIP_Current/eAIP_Online/eAIP/html/eAIP/LP-ENR-4.4-en-PT.html,
RAKUN,RAKUN,SIGNIFICANT_POINT,PORTUGAL / LPPC-LPPO FIR,33.5569444444,-15.7813888889,NAV PORTUGAL,2026-06-11,https://ais.nav.pt/wp-content/uploads/AIS_Files/eAIP_Current/eAIP_Online/eAIP/html/eAIP/LP-ENR-4.4-en-PT.html,
RALUS,RALUS,SIGNIFICANT_POINT,PORTUGAL / LPPC-LPPO FIR,41.9366666667,-7.1163888889,NAV PORTUGAL,2026-06-11,https://ais.nav.pt/wp-content/uploads/AIS_Files/eAIP_Current/eAIP_Online/eAIP/html/eAIP/LP-ENR-4.4-en-PT.html,
RARUR,RARUR,SIGNIFICANT_POINT,PORTUGAL / LPPC-LPPO FIR,39.6655555556,-8.4927777778,NAV PORTUGAL,2026-06-11,https://ais.nav.pt/wp-content/uploads/AIS_Files/eAIP_Current/eAIP_Online/eAIP/html/eAIP/LP-ENR-4.4-en-PT.html,
REDSO,REDSO,SIGNIFICANT_POINT,PORTUGAL / LPPC-LPPO FIR,37.6480555556,-25.7952777778,NAV PORTUGAL,2026-06-11,https://ais.nav.pt/wp-content/uploads/AIS_Files/eAIP_Current/eAIP_Online/eAIP/html/eAIP/LP-ENR-4.4-en-PT.html,
REGLA,REGLA,SIGNIFICANT_POINT,PORTUGAL / LPPC-LPPO FIR,38.8552777778,-26.1388888889,NAV PORTUGAL,2026-06-11,https://ais.nav.pt/wp-content/uploads/AIS_Files/eAIP_Current/eAIP_Online/eAIP/html/eAIP/LP-ENR-4.4-en-PT.html,
RELKU,RELKU,SIGNIFICANT_POINT,PORTUGAL / LPPC-LPPO FIR,38.4169444444,-9.4608333333,NAV PORTUGAL,2026-06-11,https://ais.nav.pt/wp-content/uploads/AIS_Files/eAIP_Current/eAIP_Online/eAIP/html/eAIP/LP-ENR-4.4-en-PT.html,
RELVA,RELVA,SIGNIFICANT_POINT,PORTUGAL / LPPC-LPPO FIR,41.8527777778,-8.5975000000,NAV PORTUGAL,2026-06-11,https://ais.nav.pt/wp-content/uploads/AIS_Files/eAIP_Current/eAIP_Online/eAIP/html/eAIP/LP-ENR-4.4-en-PT.html,
RETEN,RETEN,SIGNIFICANT_POINT,PORTUGAL / LPPC-LPPO FIR,43.0000000000,-13.0000000000,NAV PORTUGAL,2026-06-11,https://ais.nav.pt/wp-content/uploads/AIS_Files/eAIP_Current/eAIP_Online/eAIP/html/eAIP/LP-ENR-4.4-en-PT.html,
RETMO,RETMO,SIGNIFICANT_POINT,PORTUGAL / LPPC-LPPO FIR,41.2277777778,-9.0138888889,NAV PORTUGAL,2026-06-11,https://ais.nav.pt/wp-content/uploads/AIS_Files/eAIP_Current/eAIP_Online/eAIP/html/eAIP/LP-ENR-4.4-en-PT.html,
RIMIV,RIMIV,SIGNIFICANT_POINT,PORTUGAL / LPPC-LPPO FIR,34.1711111111,-15.5941666667,NAV PORTUGAL,2026-06-11,https://ais.nav.pt/wp-content/uploads/AIS_Files/eAIP_Current/eAIP_Online/eAIP/html/eAIP/LP-ENR-4.4-en-PT.html,
RINOR,RINOR,SIGNIFICANT_POINT,PORTUGAL / LPPC-LPPO FIR,39.2102777778,-8.7911111111,NAV PORTUGAL,2026-06-11,https://ais.nav.pt/wp-content/uploads/AIS_Files/eAIP_Current/eAIP_Online/eAIP/html/eAIP/LP-ENR-4.4-en-PT.html,
RIPEL,RIPEL,SIGNIFICANT_POINT,PORTUGAL / LPPC-LPPO FIR,42.2830555556,-10.8161111111,NAV PORTUGAL,2026-06-11,https://ais.nav.pt/wp-content/uploads/AIS_Files/eAIP_Current/eAIP_Online/eAIP/html/eAIP/LP-ENR-4.4-en-PT.html,
RIPOD,RIPOD,SIGNIFICANT_POINT,PORTUGAL / LPPC-LPPO FIR,30.0000000000,-24.0000000000,NAV PORTUGAL,2026-06-11,https://ais.nav.pt/wp-content/uploads/AIS_Files/eAIP_Current/eAIP_Online/eAIP/html/eAIP/LP-ENR-4.4-en-PT.html,
RITUS,RITUS,SIGNIFICANT_POINT,PORTUGAL / LPPC-LPPO FIR,41.8236111111,-8.1994444444,NAV PORTUGAL,2026-06-11,https://ais.nav.pt/wp-content/uploads/AIS_Files/eAIP_Current/eAIP_Online/eAIP/html/eAIP/LP-ENR-4.4-en-PT.html,
RIVRO,RIVRO,SIGNIFICANT_POINT,PORTUGAL / LPPC-LPPO FIR,40.6227777778,-6.7227777778,NAV PORTUGAL,2026-06-11,https://ais.nav.pt/wp-content/uploads/AIS_Files/eAIP_Current/eAIP_Online/eAIP/html/eAIP/LP-ENR-4.4-en-PT.html,
RODAP,RODAP,SIGNIFICANT_POINT,PORTUGAL / LPPC-LPPO FIR,39.6325000000,-7.0652777778,NAV PORTUGAL,2026-06-11,https://ais.nav.pt/wp-content/uploads/AIS_Files/eAIP_Current/eAIP_Online/eAIP/html/eAIP/LP-ENR-4.4-en-PT.html,
RODAS,RODAS,SIGNIFICANT_POINT,PORTUGAL / LPPC-LPPO FIR,37.7725000000,-25.9927777778,NAV PORTUGAL,2026-06-11,https://ais.nav.pt/wp-content/uploads/AIS_Files/eAIP_Current/eAIP_Online/eAIP/html/eAIP/LP-ENR-4.4-en-PT.html,
RODIL,RODIL,SIGNIFICANT_POINT,PORTUGAL / LPPC-LPPO FIR,38.0788888889,-27.6066666667,NAV PORTUGAL,2026-06-11,https://ais.nav.pt/wp-content/uploads/AIS_Files/eAIP_Current/eAIP_Online/eAIP/html/eAIP/LP-ENR-4.4-en-PT.html,
ROFIG,ROFIG,SIGNIFICANT_POINT,PORTUGAL / LPPC-LPPO FIR,39.6111111111,-30.7777777778,NAV PORTUGAL,2026-06-11,https://ais.nav.pt/wp-content/uploads/AIS_Files/eAIP_Current/eAIP_Online/eAIP/html/eAIP/LP-ENR-4.4-en-PT.html,
ROKOB,ROKOB,SIGNIFICANT_POINT,PORTUGAL / LPPC-LPPO FIR,38.8530555556,-9.0975000000,NAV PORTUGAL,2026-06-11,https://ais.nav.pt/wp-content/uploads/AIS_Files/eAIP_Current/eAIP_Online/eAIP/html/eAIP/LP-ENR-4.4-en-PT.html,
ROKTE,ROKTE,SIGNIFICANT_POINT,PORTUGAL / LPPC-LPPO FIR,36.5827777778,-8.3386111111,NAV PORTUGAL,2026-06-11,https://ais.nav.pt/wp-content/uploads/AIS_Files/eAIP_Current/eAIP_Online/eAIP/html/eAIP/LP-ENR-4.4-en-PT.html,
ROLAR,ROLAR,SIGNIFICANT_POINT,PORTUGAL / LPPC-LPPO FIR,34.2113888889,-15.2058333333,NAV PORTUGAL,2026-06-11,https://ais.nav.pt/wp-content/uploads/AIS_Files/eAIP_Current/eAIP_Online/eAIP/html/eAIP/LP-ENR-4.4-en-PT.html,
ROMEP,ROMEP,SIGNIFICANT_POINT,PORTUGAL / LPPC-LPPO FIR,39.0652777778,-8.7205555556,NAV PORTUGAL,2026-06-11,https://ais.nav.pt/wp-content/uploads/AIS_Files/eAIP_Current/eAIP_Online/eAIP/html/eAIP/LP-ENR-4.4-en-PT.html,
ROSAL,ROSAL,SIGNIFICANT_POINT,PORTUGAL / LPPC-LPPO FIR,38.0213888889,-7.1013888889,NAV PORTUGAL,2026-06-11,https://ais.nav.pt/wp-content/uploads/AIS_Files/eAIP_Current/eAIP_Online/eAIP/html/eAIP/LP-ENR-4.4-en-PT.html,
ROTBU,ROTBU,SIGNIFICANT_POINT,PORTUGAL / LPPC-LPPO FIR,39.1963888889,-9.1591666667,NAV PORTUGAL,2026-06-11,https://ais.nav.pt/wp-content/uploads/AIS_Files/eAIP_Current/eAIP_Online/eAIP/html/eAIP/LP-ENR-4.4-en-PT.html,
RUKAV,RUKAV,SIGNIFICANT_POINT,PORTUGAL / LPPC-LPPO FIR,22.1769444444,-28.5380555556,NAV PORTUGAL,2026-06-11,https://ais.nav.pt/wp-content/uploads/AIS_Files/eAIP_Current/eAIP_Online/eAIP/html/eAIP/LP-ENR-4.4-en-PT.html,
RULET,RULET,SIGNIFICANT_POINT,PORTUGAL / LPPC-LPPO FIR,34.2516666667,-14.9155555556,NAV PORTUGAL,2026-06-11,https://ais.nav.pt/wp-content/uploads/AIS_Files/eAIP_Current/eAIP_Online/eAIP/html/eAIP/LP-ENR-4.4-en-PT.html,
RULOX,RULOX,SIGNIFICANT_POINT,PORTUGAL / LPPC-LPPO FIR,38.9000000000,-10.0000000000,NAV PORTUGAL,2026-06-11,https://ais.nav.pt/wp-content/uploads/AIS_Files/eAIP_Current/eAIP_Online/eAIP/html/eAIP/LP-ENR-4.4-en-PT.html,
RUPEP,RUPEP,SIGNIFICANT_POINT,PORTUGAL / LPPC-LPPO FIR,35.5386111111,-15.7144444444,NAV PORTUGAL,2026-06-11,https://ais.nav.pt/wp-content/uploads/AIS_Files/eAIP_Current/eAIP_Online/eAIP/html/eAIP/LP-ENR-4.4-en-PT.html,
SIPRU,SIPRU,SIGNIFICANT_POINT,PORTUGAL / LPPC-LPPO FIR,39.1800000000,-27.8894444444,NAV PORTUGAL,2026-06-11,https://ais.nav.pt/wp-content/uploads/AIS_Files/eAIP_Current/eAIP_Online/eAIP/html/eAIP/LP-ENR-4.4-en-PT.html,
SOLGI,SOLGI,SIGNIFICANT_POINT,PORTUGAL / LPPC-LPPO FIR,38.6250000000,-28.0327777778,NAV PORTUGAL,2026-06-11,https://ais.nav.pt/wp-content/uploads/AIS_Files/eAIP_Current/eAIP_Online/eAIP/html/eAIP/LP-ENR-4.4-en-PT.html,
SOMUL,SOMUL,SIGNIFICANT_POINT,PORTUGAL / LPPC-LPPO FIR,38.2225000000,-27.3169444444,NAV PORTUGAL,2026-06-11,https://ais.nav.pt/wp-content/uploads/AIS_Files/eAIP_Current/eAIP_Online/eAIP/html/eAIP/LP-ENR-4.4-en-PT.html,
SONAP,SONAP,SIGNIFICANT_POINT,PORTUGAL / LPPC-LPPO FIR,36.5000000000,-10.0000000000,NAV PORTUGAL,2026-06-11,https://ais.nav.pt/wp-content/uploads/AIS_Files/eAIP_Current/eAIP_Online/eAIP/html/eAIP/LP-ENR-4.4-en-PT.html,
SOPOP,SOPOP,SIGNIFICANT_POINT,PORTUGAL / LPPC-LPPO FIR,40.4400000000,-12.3866666667,NAV PORTUGAL,2026-06-11,https://ais.nav.pt/wp-content/uploads/AIS_Files/eAIP_Current/eAIP_Online/eAIP/html/eAIP/LP-ENR-4.4-en-PT.html,
SORAD,SORAD,SIGNIFICANT_POINT,PORTUGAL / LPPC-LPPO FIR,30.0000000000,-25.0000000000,NAV PORTUGAL,2026-06-11,https://ais.nav.pt/wp-content/uploads/AIS_Files/eAIP_Current/eAIP_Online/eAIP/html/eAIP/LP-ENR-4.4-en-PT.html,
SOTEX,SOTEX,SIGNIFICANT_POINT,PORTUGAL / LPPC-LPPO FIR,38.2927777778,-8.2200000000,NAV PORTUGAL,2026-06-11,https://ais.nav.pt/wp-content/uploads/AIS_Files/eAIP_Current/eAIP_Online/eAIP/html/eAIP/LP-ENR-4.4-en-PT.html,
SUBAL,SUBAL,SIGNIFICANT_POINT,PORTUGAL / LPPC-LPPO FIR,35.5463888889,-12.3125000000,NAV PORTUGAL,2026-06-11,https://ais.nav.pt/wp-content/uploads/AIS_Files/eAIP_Current/eAIP_Online/eAIP/html/eAIP/LP-ENR-4.4-en-PT.html,
SUFAS,SUFAS,SIGNIFICANT_POINT,PORTUGAL / LPPC-LPPO FIR,39.0925000000,-30.3525000000,NAV PORTUGAL,2026-06-11,https://ais.nav.pt/wp-content/uploads/AIS_Files/eAIP_Current/eAIP_Online/eAIP/html/eAIP/LP-ENR-4.4-en-PT.html,
SUNES,SUNES,SIGNIFICANT_POINT,PORTUGAL / LPPC-LPPO FIR,37.3075000000,-9.0000000000,NAV PORTUGAL,2026-06-11,https://ais.nav.pt/wp-content/uploads/AIS_Files/eAIP_Current/eAIP_Online/eAIP/html/eAIP/LP-ENR-4.4-en-PT.html,
SUPIK,SUPIK,SIGNIFICANT_POINT,PORTUGAL / LPPC-LPPO FIR,37.9208333333,-26.0594444444,NAV PORTUGAL,2026-06-11,https://ais.nav.pt/wp-content/uploads/AIS_Files/eAIP_Current/eAIP_Online/eAIP/html/eAIP/LP-ENR-4.4-en-PT.html,
TABAX,TABAX,SIGNIFICANT_POINT,PORTUGAL / LPPC-LPPO FIR,38.1572222222,-13.7491666667,NAV PORTUGAL,2026-06-11,https://ais.nav.pt/wp-content/uploads/AIS_Files/eAIP_Current/eAIP_Online/eAIP/html/eAIP/LP-ENR-4.4-en-PT.html,
TACAT,TACAT,SIGNIFICANT_POINT,PORTUGAL / LPPC-LPPO FIR,38.7602777778,-27.0913888889,NAV PORTUGAL,2026-06-11,https://ais.nav.pt/wp-content/uploads/AIS_Files/eAIP_Current/eAIP_Online/eAIP/html/eAIP/LP-ENR-4.4-en-PT.html,
TAGUX,TAGUX,SIGNIFICANT_POINT,PORTUGAL / LPPC-LPPO FIR,38.9455555556,-7.9141666667,NAV PORTUGAL,2026-06-11,https://ais.nav.pt/wp-content/uploads/AIS_Files/eAIP_Current/eAIP_Online/eAIP/html/eAIP/LP-ENR-4.4-en-PT.html,
TAKAV,TAKAV,SIGNIFICANT_POINT,PORTUGAL / LPPC-LPPO FIR,35.9666666667,-9.3719444444,NAV PORTUGAL,2026-06-11,https://ais.nav.pt/wp-content/uploads/AIS_Files/eAIP_Current/eAIP_Online/eAIP/html/eAIP/LP-ENR-4.4-en-PT.html,
TEGTO,TEGTO,SIGNIFICANT_POINT,PORTUGAL / LPPC-LPPO FIR,20.9602777778,-30.7713888889,NAV PORTUGAL,2026-06-11,https://ais.nav.pt/wp-content/uploads/AIS_Files/eAIP_Current/eAIP_Online/eAIP/html/eAIP/LP-ENR-4.4-en-PT.html,
TELMU,TELMU,SIGNIFICANT_POINT,PORTUGAL / LPPC-LPPO FIR,35.6377777778,-14.5305555556,NAV PORTUGAL,2026-06-11,https://ais.nav.pt/wp-content/uploads/AIS_Files/eAIP_Current/eAIP_Online/eAIP/html/eAIP/LP-ENR-4.4-en-PT.html,
TERVA,TERVA,SIGNIFICANT_POINT,PORTUGAL / LPPC-LPPO FIR,40.4166666667,-9.5911111111,NAV PORTUGAL,2026-06-11,https://ais.nav.pt/wp-content/uploads/AIS_Files/eAIP_Current/eAIP_Online/eAIP/html/eAIP/LP-ENR-4.4-en-PT.html,
TIDVI,TIDVI,SIGNIFICANT_POINT,PORTUGAL / LPPC-LPPO FIR,38.1241666667,-26.1513888889,NAV PORTUGAL,2026-06-11,https://ais.nav.pt/wp-content/uploads/AIS_Files/eAIP_Current/eAIP_Online/eAIP/html/eAIP/LP-ENR-4.4-en-PT.html,
TIGGI,TIGGI,SIGNIFICANT_POINT,PORTUGAL / LPPC-LPPO FIR,35.9666666667,-10.9355555556,NAV PORTUGAL,2026-06-11,https://ais.nav.pt/wp-content/uploads/AIS_Files/eAIP_Current/eAIP_Online/eAIP/html/eAIP/LP-ENR-4.4-en-PT.html,
TIMTO,TIMTO,SIGNIFICANT_POINT,PORTUGAL / LPPC-LPPO FIR,38.3877777778,-27.3213888889,NAV PORTUGAL,2026-06-11,https://ais.nav.pt/wp-content/uploads/AIS_Files/eAIP_Current/eAIP_Online/eAIP/html/eAIP/LP-ENR-4.4-en-PT.html,
TIRKO,TIRKO,SIGNIFICANT_POINT,PORTUGAL / LPPC-LPPO FIR,38.8455555556,-27.1783333333,NAV PORTUGAL,2026-06-11,https://ais.nav.pt/wp-content/uploads/AIS_Files/eAIP_Current/eAIP_Online/eAIP/html/eAIP/LP-ENR-4.4-en-PT.html,
TOFEF,TOFEF,SIGNIFICANT_POINT,PORTUGAL / LPPC-LPPO FIR,39.5288888889,-7.3663888889,NAV PORTUGAL,2026-06-11,https://ais.nav.pt/wp-content/uploads/AIS_Files/eAIP_Current/eAIP_Online/eAIP/html/eAIP/LP-ENR-4.4-en-PT.html,
TOPVI,TOPVI,SIGNIFICANT_POINT,PORTUGAL / LPPC-LPPO FIR,38.9186111111,-9.0625000000,NAV PORTUGAL,2026-06-11,https://ais.nav.pt/wp-content/uploads/AIS_Files/eAIP_Current/eAIP_Online/eAIP/html/eAIP/LP-ENR-4.4-en-PT.html,
TORVU,TORVU,SIGNIFICANT_POINT,PORTUGAL / LPPC-LPPO FIR,34.6527777778,-14.0036111111,NAV PORTUGAL,2026-06-11,https://ais.nav.pt/wp-content/uploads/AIS_Files/eAIP_Current/eAIP_Online/eAIP/html/eAIP/LP-ENR-4.4-en-PT.html,
TOSDI,TOSDI,SIGNIFICANT_POINT,PORTUGAL / LPPC-LPPO FIR,40.9908333333,-6.2886111111,NAV PORTUGAL,2026-06-11,https://ais.nav.pt/wp-content/uploads/AIS_Files/eAIP_Current/eAIP_Online/eAIP/html/eAIP/LP-ENR-4.4-en-PT.html,
TOVBA,TOVBA,SIGNIFICANT_POINT,PORTUGAL / LPPC-LPPO FIR,41.4544444444,-8.9811111111,NAV PORTUGAL,2026-06-11,https://ais.nav.pt/wp-content/uploads/AIS_Files/eAIP_Current/eAIP_Online/eAIP/html/eAIP/LP-ENR-4.4-en-PT.html,
TROIA,TROIA,SIGNIFICANT_POINT,PORTUGAL / LPPC-LPPO FIR,38.0733333333,-8.8791666667,NAV PORTUGAL,2026-06-11,https://ais.nav.pt/wp-content/uploads/AIS_Files/eAIP_Current/eAIP_Online/eAIP/html/eAIP/LP-ENR-4.4-en-PT.html,
TUNAV,TUNAV,SIGNIFICANT_POINT,PORTUGAL / LPPC-LPPO FIR,39.3150000000,-11.3736111111,NAV PORTUGAL,2026-06-11,https://ais.nav.pt/wp-content/uploads/AIS_Files/eAIP_Current/eAIP_Online/eAIP/html/eAIP/LP-ENR-4.4-en-PT.html,
TUPIX,TUPIX,SIGNIFICANT_POINT,PORTUGAL / LPPC-LPPO FIR,37.0761111111,-7.3833333333,NAV PORTUGAL,2026-06-11,https://ais.nav.pt/wp-content/uploads/AIS_Files/eAIP_Current/eAIP_Online/eAIP/html/eAIP/LP-ENR-4.4-en-PT.html,
TURON,TURON,SIGNIFICANT_POINT,PORTUGAL / LPPC-LPPO FIR,42.0680555556,-8.5633333333,NAV PORTUGAL,2026-06-11,https://ais.nav.pt/wp-content/uploads/AIS_Files/eAIP_Current/eAIP_Online/eAIP/html/eAIP/LP-ENR-4.4-en-PT.html,
TUSEX,TUSEX,SIGNIFICANT_POINT,PORTUGAL / LPPC-LPPO FIR,37.8236111111,-26.0930555556,NAV PORTUGAL,2026-06-11,https://ais.nav.pt/wp-content/uploads/AIS_Files/eAIP_Current/eAIP_Online/eAIP/html/eAIP/LP-ENR-4.4-en-PT.html,
TUTLO,TUTLO,SIGNIFICANT_POINT,PORTUGAL / LPPC-LPPO FIR,17.0000000000,-37.5000000000,NAV PORTUGAL,2026-06-11,https://ais.nav.pt/wp-content/uploads/AIS_Files/eAIP_Current/eAIP_Online/eAIP/html/eAIP/LP-ENR-4.4-en-PT.html,
TUXIV,TUXIV,SIGNIFICANT_POINT,PORTUGAL / LPPC-LPPO FIR,33.7205555556,-17.6408333333,NAV PORTUGAL,2026-06-11,https://ais.nav.pt/wp-content/uploads/AIS_Files/eAIP_Current/eAIP_Online/eAIP/html/eAIP/LP-ENR-4.4-en-PT.html,
UBANI,UBANI,SIGNIFICANT_POINT,PORTUGAL / LPPC-LPPO FIR,41.5577777778,-9.2394444444,NAV PORTUGAL,2026-06-11,https://ais.nav.pt/wp-content/uploads/AIS_Files/eAIP_Current/eAIP_Online/eAIP/html/eAIP/LP-ENR-4.4-en-PT.html,
UBESO,UBESO,SIGNIFICANT_POINT,PORTUGAL / LPPC-LPPO FIR,36.7475000000,-7.8138888889,NAV PORTUGAL,2026-06-11,https://ais.nav.pt/wp-content/uploads/AIS_Files/eAIP_Current/eAIP_Online/eAIP/html/eAIP/LP-ENR-4.4-en-PT.html,
UDRUB,UDRUB,SIGNIFICANT_POINT,PORTUGAL / LPPC-LPPO FIR,41.4241666667,-8.7275000000,NAV PORTUGAL,2026-06-11,https://ais.nav.pt/wp-content/uploads/AIS_Files/eAIP_Current/eAIP_Online/eAIP/html/eAIP/LP-ENR-4.4-en-PT.html,
ULTEM,ULTEM,SIGNIFICANT_POINT,PORTUGAL / LPPC-LPPO FIR,21.4961111111,-29.8000000000,NAV PORTUGAL,2026-06-11,https://ais.nav.pt/wp-content/uploads/AIS_Files/eAIP_Current/eAIP_Online/eAIP/html/eAIP/LP-ENR-4.4-en-PT.html,
ULTIT,ULTIT,SIGNIFICANT_POINT,PORTUGAL / LPPC-LPPO FIR,38.5322222222,-9.2050000000,NAV PORTUGAL,2026-06-11,https://ais.nav.pt/wp-content/uploads/AIS_Files/eAIP_Current/eAIP_Online/eAIP/html/eAIP/LP-ENR-4.4-en-PT.html,
ULVAX,ULVAX,SIGNIFICANT_POINT,PORTUGAL / LPPC-LPPO FIR,41.0041666667,-7.8344444444,NAV PORTUGAL,2026-06-11,https://ais.nav.pt/wp-content/uploads/AIS_Files/eAIP_Current/eAIP_Online/eAIP/html/eAIP/LP-ENR-4.4-en-PT.html,
ULVOT,ULVOT,SIGNIFICANT_POINT,PORTUGAL / LPPC-LPPO FIR,37.6244444444,-9.9897222222,NAV PORTUGAL,2026-06-11,https://ais.nav.pt/wp-content/uploads/AIS_Files/eAIP_Current/eAIP_Online/eAIP/html/eAIP/LP-ENR-4.4-en-PT.html,
UNPOT,UNPOT,SIGNIFICANT_POINT,PORTUGAL / LPPC-LPPO FIR,38.1794444444,-10.0000000000,NAV PORTUGAL,2026-06-11,https://ais.nav.pt/wp-content/uploads/AIS_Files/eAIP_Current/eAIP_Online/eAIP/html/eAIP/LP-ENR-4.4-en-PT.html,
UPKAT,UPKAT,SIGNIFICANT_POINT,PORTUGAL / LPPC-LPPO FIR,38.9663888889,-9.0366666667,NAV PORTUGAL,2026-06-11,https://ais.nav.pt/wp-content/uploads/AIS_Files/eAIP_Current/eAIP_Online/eAIP/html/eAIP/LP-ENR-4.4-en-PT.html,
UPULO,UPULO,SIGNIFICANT_POINT,PORTUGAL / LPPC-LPPO FIR,39.0438888889,-7.6519444444,NAV PORTUGAL,2026-06-11,https://ais.nav.pt/wp-content/uploads/AIS_Files/eAIP_Current/eAIP_Online/eAIP/html/eAIP/LP-ENR-4.4-en-PT.html,
UPZET,UPZET,SIGNIFICANT_POINT,PORTUGAL / LPPC-LPPO FIR,39.0105555556,-27.1308333333,NAV PORTUGAL,2026-06-11,https://ais.nav.pt/wp-content/uploads/AIS_Files/eAIP_Current/eAIP_Online/eAIP/html/eAIP/LP-ENR-4.4-en-PT.html,
URATU,URATU,SIGNIFICANT_POINT,PORTUGAL / LPPC-LPPO FIR,36.6961111111,-25.1538888889,NAV PORTUGAL,2026-06-11,https://ais.nav.pt/wp-content/uploads/AIS_Files/eAIP_Current/eAIP_Online/eAIP/html/eAIP/LP-ENR-4.4-en-PT.html,
UREDI,UREDI,SIGNIFICANT_POINT,PORTUGAL / LPPC-LPPO FIR,39.8597222222,-6.3933333333,NAV PORTUGAL,2026-06-11,https://ais.nav.pt/wp-content/uploads/AIS_Files/eAIP_Current/eAIP_Online/eAIP/html/eAIP/LP-ENR-4.4-en-PT.html,
USALU,USALU,SIGNIFICANT_POINT,PORTUGAL / LPPC-LPPO FIR,37.2222222222,-8.3002777778,NAV PORTUGAL,2026-06-11,https://ais.nav.pt/wp-content/uploads/AIS_Files/eAIP_Current/eAIP_Online/eAIP/html/eAIP/LP-ENR-4.4-en-PT.html,
VABEM,VABEM,SIGNIFICANT_POINT,PORTUGAL / LPPC-LPPO FIR,36.5491666667,-13.3227777778,NAV PORTUGAL,2026-06-11,https://ais.nav.pt/wp-content/uploads/AIS_Files/eAIP_Current/eAIP_Online/eAIP/html/eAIP/LP-ENR-4.4-en-PT.html,
VACKA,VACKA,SIGNIFICANT_POINT,PORTUGAL / LPPC-LPPO FIR,39.2402777778,-30.2655555556,NAV PORTUGAL,2026-06-11,https://ais.nav.pt/wp-content/uploads/AIS_Files/eAIP_Current/eAIP_Online/eAIP/html/eAIP/LP-ENR-4.4-en-PT.html,
VAGAR,VAGAR,SIGNIFICANT_POINT,PORTUGAL / LPPC-LPPO FIR,38.5019444444,-9.4988888889,NAV PORTUGAL,2026-06-11,https://ais.nav.pt/wp-content/uploads/AIS_Files/eAIP_Current/eAIP_Online/eAIP/html/eAIP/LP-ENR-4.4-en-PT.html,
VAPOV,VAPOV,SIGNIFICANT_POINT,PORTUGAL / LPPC-LPPO FIR,39.5602777778,-30.8675000000,NAV PORTUGAL,2026-06-11,https://ais.nav.pt/wp-content/uploads/AIS_Files/eAIP_Current/eAIP_Online/eAIP/html/eAIP/LP-ENR-4.4-en-PT.html,
VASIP,VASIP,SIGNIFICANT_POINT,PORTUGAL / LPPC-LPPO FIR,41.5550000000,-8.3761111111,NAV PORTUGAL,2026-06-11,https://ais.nav.pt/wp-content/uploads/AIS_Files/eAIP_Current/eAIP_Online/eAIP/html/eAIP/LP-ENR-4.4-en-PT.html,
VATZI,VATZI,SIGNIFICANT_POINT,PORTUGAL / LPPC-LPPO FIR,37.5977777778,-8.8630555556,NAV PORTUGAL,2026-06-11,https://ais.nav.pt/wp-content/uploads/AIS_Files/eAIP_Current/eAIP_Online/eAIP/html/eAIP/LP-ENR-4.4-en-PT.html,
VEDEL,VEDEL,SIGNIFICANT_POINT,PORTUGAL / LPPC-LPPO FIR,39.8575000000,-12.6700000000,NAV PORTUGAL,2026-06-11,https://ais.nav.pt/wp-content/uploads/AIS_Files/eAIP_Current/eAIP_Online/eAIP/html/eAIP/LP-ENR-4.4-en-PT.html,
VELAS,VELAS,SIGNIFICANT_POINT,PORTUGAL / LPPC-LPPO FIR,38.6588888889,-28.3586111111,NAV PORTUGAL,2026-06-11,https://ais.nav.pt/wp-content/uploads/AIS_Files/eAIP_Current/eAIP_Online/eAIP/html/eAIP/LP-ENR-4.4-en-PT.html,
VEPOP,VEPOP,SIGNIFICANT_POINT,PORTUGAL / LPPC-LPPO FIR,19.3675000000,-33.5675000000,NAV PORTUGAL,2026-06-11,https://ais.nav.pt/wp-content/uploads/AIS_Files/eAIP_Current/eAIP_Online/eAIP/html/eAIP/LP-ENR-4.4-en-PT.html,
VERAM,VERAM,SIGNIFICANT_POINT,PORTUGAL / LPPC-LPPO FIR,36.7725000000,-13.6752777778,NAV PORTUGAL,2026-06-11,https://ais.nav.pt/wp-content/uploads/AIS_Files/eAIP_Current/eAIP_Online/eAIP/html/eAIP/LP-ENR-4.4-en-PT.html,
VESOB,VESOB,SIGNIFICANT_POINT,PORTUGAL / LPPC-LPPO FIR,39.1322222222,-27.7975000000,NAV PORTUGAL,2026-06-11,https://ais.nav.pt/wp-content/uploads/AIS_Files/eAIP_Current/eAIP_Online/eAIP/html/eAIP/LP-ENR-4.4-en-PT.html,
VIBOC,VIBOC,SIGNIFICANT_POINT,PORTUGAL / LPPC-LPPO FIR,39.0291666667,-27.3716666667,NAV PORTUGAL,2026-06-11,https://ais.nav.pt/wp-content/uploads/AIS_Files/eAIP_Current/eAIP_Online/eAIP/html/eAIP/LP-ENR-4.4-en-PT.html,
VOROC,VOROC,SIGNIFICANT_POINT,PORTUGAL / LPPC-LPPO FIR,38.7838888889,-27.1044444444,NAV PORTUGAL,2026-06-11,https://ais.nav.pt/wp-content/uploads/AIS_Files/eAIP_Current/eAIP_Online/eAIP/html/eAIP/LP-ENR-4.4-en-PT.html,
XAMAX,XAMAX,SIGNIFICANT_POINT,PORTUGAL / LPPC-LPPO FIR,40.0311111111,-8.5361111111,NAV PORTUGAL,2026-06-11,https://ais.nav.pt/wp-content/uploads/AIS_Files/eAIP_Current/eAIP_Online/eAIP/html/eAIP/LP-ENR-4.4-en-PT.html,
XANEL,XANEL,SIGNIFICANT_POINT,PORTUGAL / LPPC-LPPO FIR,39.4030555556,-12.2036111111,NAV PORTUGAL,2026-06-11,https://ais.nav.pt/wp-content/uploads/AIS_Files/eAIP_Current/eAIP_Online/eAIP/html/eAIP/LP-ENR-4.4-en-PT.html,
XAPAS,XAPAS,SIGNIFICANT_POINT,PORTUGAL / LPPC-LPPO FIR,37.5972222222,-7.9500000000,NAV PORTUGAL,2026-06-11,https://ais.nav.pt/wp-content/uploads/AIS_Files/eAIP_Current/eAIP_Online/eAIP/html/eAIP/LP-ENR-4.4-en-PT.html,
XAPIM,XAPIM,SIGNIFICANT_POINT,PORTUGAL / LPPC-LPPO FIR,41.0780555556,-8.6366666667,NAV PORTUGAL,2026-06-11,https://ais.nav.pt/wp-content/uploads/AIS_Files/eAIP_Current/eAIP_Online/eAIP/html/eAIP/LP-ENR-4.4-en-PT.html,
XEGEN,XEGEN,SIGNIFICANT_POINT,PORTUGAL / LPPC-LPPO FIR,32.3163888889,-16.0161111111,NAV PORTUGAL,2026-06-11,https://ais.nav.pt/wp-content/uploads/AIS_Files/eAIP_Current/eAIP_Online/eAIP/html/eAIP/LP-ENR-4.4-en-PT.html,
XEMIC,XEMIC,SIGNIFICANT_POINT,PORTUGAL / LPPC-LPPO FIR,39.6194444444,-30.8816666667,NAV PORTUGAL,2026-06-11,https://ais.nav.pt/wp-content/uploads/AIS_Files/eAIP_Current/eAIP_Online/eAIP/html/eAIP/LP-ENR-4.4-en-PT.html,
XERES,XERES,SIGNIFICANT_POINT,PORTUGAL / LPPC-LPPO FIR,42.0238888889,-10.0680555556,NAV PORTUGAL,2026-06-11,https://ais.nav.pt/wp-content/uploads/AIS_Files/eAIP_Current/eAIP_Online/eAIP/html/eAIP/LP-ENR-4.4-en-PT.html,
XERON,XERON,SIGNIFICANT_POINT,PORTUGAL / LPPC-LPPO FIR,32.3813888889,-16.9436111111,NAV PORTUGAL,2026-06-11,https://ais.nav.pt/wp-content/uploads/AIS_Files/eAIP_Current/eAIP_Online/eAIP/html/eAIP/LP-ENR-4.4-en-PT.html,
XETOS,XETOS,SIGNIFICANT_POINT,PORTUGAL / LPPC-LPPO FIR,38.6922222222,-26.7983333333,NAV PORTUGAL,2026-06-11,https://ais.nav.pt/wp-content/uploads/AIS_Files/eAIP_Current/eAIP_Online/eAIP/html/eAIP/LP-ENR-4.4-en-PT.html,
XEXEH,XEXEH,SIGNIFICANT_POINT,PORTUGAL / LPPC-LPPO FIR,37.5083333333,-8.3633333333,NAV PORTUGAL,2026-06-11,https://ais.nav.pt/wp-content/uploads/AIS_Files/eAIP_Current/eAIP_Online/eAIP/html/eAIP/LP-ENR-4.4-en-PT.html,
XIBOT,XIBOT,SIGNIFICANT_POINT,PORTUGAL / LPPC-LPPO FIR,18.2541666667,-35.4466666667,NAV PORTUGAL,2026-06-11,https://ais.nav.pt/wp-content/uploads/AIS_Files/eAIP_Current/eAIP_Online/eAIP/html/eAIP/LP-ENR-4.4-en-PT.html,
XOGRA,XOGRA,SIGNIFICANT_POINT,PORTUGAL / LPPC-LPPO FIR,38.4033333333,-29.0213888889,NAV PORTUGAL,2026-06-11,https://ais.nav.pt/wp-content/uploads/AIS_Files/eAIP_Current/eAIP_Online/eAIP/html/eAIP/LP-ENR-4.4-en-PT.html,
XORVU,XORVU,SIGNIFICANT_POINT,PORTUGAL / LPPC-LPPO FIR,39.6305555556,-30.6519444444,NAV PORTUGAL,2026-06-11,https://ais.nav.pt/wp-content/uploads/AIS_Files/eAIP_Current/eAIP_Online/eAIP/html/eAIP/LP-ENR-4.4-en-PT.html,
XUVAP,XUVAP,SIGNIFICANT_POINT,PORTUGAL / LPPC-LPPO FIR,37.5891666667,-25.2169444444,NAV PORTUGAL,2026-06-11,https://ais.nav.pt/wp-content/uploads/AIS_Files/eAIP_Current/eAIP_Online/eAIP/html/eAIP/LP-ENR-4.4-en-PT.html,
YARMA,YARMA,SIGNIFICANT_POINT,PORTUGAL / LPPC-LPPO FIR,39.4202777778,-30.9311111111,NAV PORTUGAL,2026-06-11,https://ais.nav.pt/wp-content/uploads/AIS_Files/eAIP_Current/eAIP_Online/eAIP/html/eAIP/LP-ENR-4.4-en-PT.html,
YEGGO,YEGGO,SIGNIFICANT_POINT,PORTUGAL / LPPC-LPPO FIR,36.7897222222,-25.1350000000,NAV PORTUGAL,2026-06-11,https://ais.nav.pt/wp-content/uploads/AIS_Files/eAIP_Current/eAIP_Online/eAIP/html/eAIP/LP-ENR-4.4-en-PT.html,
YETSI,YETSI,SIGNIFICANT_POINT,PORTUGAL / LPPC-LPPO FIR,38.3216666667,-8.8952777778,NAV PORTUGAL,2026-06-11,https://ais.nav.pt/wp-content/uploads/AIS_Files/eAIP_Current/eAIP_Online/eAIP/html/eAIP/LP-ENR-4.4-en-PT.html,
ZACRA,ZACRA,SIGNIFICANT_POINT,PORTUGAL / LPPC-LPPO FIR,38.3466666667,-9.1063888889,NAV PORTUGAL,2026-06-11,https://ais.nav.pt/wp-content/uploads/AIS_Files/eAIP_Current/eAIP_Online/eAIP/html/eAIP/LP-ENR-4.4-en-PT.html,
ZAMOQ,ZAMOQ,SIGNIFICANT_POINT,PORTUGAL / LPPC-LPPO FIR,37.9530555556,-25.9283333333,NAV PORTUGAL,2026-06-11,https://ais.nav.pt/wp-content/uploads/AIS_Files/eAIP_Current/eAIP_Online/eAIP/html/eAIP/LP-ENR-4.4-en-PT.html,
ZANEV,ZANEV,SIGNIFICANT_POINT,PORTUGAL / LPPC-LPPO FIR,38.6113888889,-28.9497222222,NAV PORTUGAL,2026-06-11,https://ais.nav.pt/wp-content/uploads/AIS_Files/eAIP_Current/eAIP_Online/eAIP/html/eAIP/LP-ENR-4.4-en-PT.html,
ZEDRE,ZEDRE,SIGNIFICANT_POINT,PORTUGAL / LPPC-LPPO FIR,39.6177777778,-31.1763888889,NAV PORTUGAL,2026-06-11,https://ais.nav.pt/wp-content/uploads/AIS_Files/eAIP_Current/eAIP_Online/eAIP/html/eAIP/LP-ENR-4.4-en-PT.html,
ZENGI,ZENGI,SIGNIFICANT_POINT,PORTUGAL / LPPC-LPPO FIR,39.4619444444,-30.2211111111,NAV PORTUGAL,2026-06-11,https://ais.nav.pt/wp-content/uploads/AIS_Files/eAIP_Current/eAIP_Online/eAIP/html/eAIP/LP-ENR-4.4-en-PT.html,
ZEFFI,ZEFFI,SIGNIFICANT_POINT,PORTUGAL / LPPC-LPPO FIR,38.3625000000,-9.3577777778,NAV PORTUGAL,2026-06-11,https://ais.nav.pt/wp-content/uploads/AIS_Files/eAIP_Current/eAIP_Online/eAIP/html/eAIP/LP-ENR-4.4-en-PT.html,
ZEZZU,ZEZZU,SIGNIFICANT_POINT,PORTUGAL / LPPC-LPPO FIR,38.6347222222,-9.3222222222,NAV PORTUGAL,2026-06-11,https://ais.nav.pt/wp-content/uploads/AIS_Files/eAIP_Current/eAIP_Online/eAIP/html/eAIP/LP-ENR-4.4-en-PT.html,
ZIFOG,ZIFOG,SIGNIFICANT_POINT,PORTUGAL / LPPC-LPPO FIR,38.6963888889,-10.6711111111,NAV PORTUGAL,2026-06-11,https://ais.nav.pt/wp-content/uploads/AIS_Files/eAIP_Current/eAIP_Online/eAIP/html/eAIP/LP-ENR-4.4-en-PT.html,
ZUPAZ,ZUPAZ,SIGNIFICANT_POINT,PORTUGAL / LPPC-LPPO FIR,36.9627777778,-25.1663888889,NAV PORTUGAL,2026-06-11,https://ais.nav.pt/wp-content/uploads/AIS_Files/eAIP_Current/eAIP_Online/eAIP/html/eAIP/LP-ENR-4.4-en-PT.html,
