ident,name,point_type,region,lat,lon,provider,effective_date,source_url,source_page
ABAPU,ABAPU,SIGNIFICANT_POINT,NAMIBIA / FYWH FIR,-17.8273222222,19.0337750000,NCAA NAMIBIA,2025-08-07,https://www.ncaa.com.na/index.php/document-downloads/industrial-documents/aim-publications/enroute-2026/download,169
AGRAM,AGRAM,SIGNIFICANT_POINT,NAMIBIA / FYWH FIR,-18.0011166667,21.6662027778,NCAA NAMIBIA,2025-08-07,https://www.ncaa.com.na/index.php/document-downloads/industrial-documents/aim-publications/enroute-2026/download,169
ANSUX,ANSUX,SIGNIFICANT_POINT,NAMIBIA / FYWH FIR,-23.7698916667,14.9061388889,NCAA NAMIBIA,2025-08-07,https://www.ncaa.com.na/index.php/document-downloads/industrial-documents/aim-publications/enroute-2026/download,169
ANTEP,ANTEP,SIGNIFICANT_POINT,NAMIBIA / FYWH FIR,-24.0000000000,13.6011111111,NCAA NAMIBIA,2025-08-07,https://www.ncaa.com.na/index.php/document-downloads/industrial-documents/aim-publications/enroute-2026/download,169
ANTOR,ANTOR,SIGNIFICANT_POINT,NAMIBIA / FYWH FIR,-23.0790416667,20.0000000000,NCAA NAMIBIA,2025-08-07,https://www.ncaa.com.na/index.php/document-downloads/industrial-documents/aim-publications/enroute-2026/download,169
ANVAG,ANVAG,SIGNIFICANT_POINT,NAMIBIA / FYWH FIR,-17.3917000000,15.8228000000,NCAA NAMIBIA,2025-08-07,https://www.ncaa.com.na/index.php/document-downloads/industrial-documents/aim-publications/enroute-2026/download,169
APDEM,APDEM,SIGNIFICANT_POINT,NAMIBIA / FYWH FIR,-23.6523944444,17.2096500000,NCAA NAMIBIA,2025-08-07,https://www.ncaa.com.na/index.php/document-downloads/industrial-documents/aim-publications/enroute-2026/download,169
APDOV,APDOV,SIGNIFICANT_POINT,NAMIBIA / FYWH FIR,-24.7052222222,19.9997722222,NCAA NAMIBIA,2025-08-07,https://www.ncaa.com.na/index.php/document-downloads/industrial-documents/aim-publications/enroute-2026/download,169
APGAS,APGAS,SIGNIFICANT_POINT,NAMIBIA / FYWH FIR,-26.5502500000,15.8335277778,NCAA NAMIBIA,2025-08-07,https://www.ncaa.com.na/index.php/document-downloads/industrial-documents/aim-publications/enroute-2026/download,169
APGEK,APGEK,SIGNIFICANT_POINT,NAMIBIA / FYWH FIR,-21.9513833333,14.2986388889,NCAA NAMIBIA,2025-08-07,https://www.ncaa.com.na/index.php/document-downloads/industrial-documents/aim-publications/enroute-2026/download,169
APGIB,APGIB,SIGNIFICANT_POINT,NAMIBIA / FYWH FIR,-23.5765000000,18.1690472222,NCAA NAMIBIA,2025-08-07,https://www.ncaa.com.na/index.php/document-downloads/industrial-documents/aim-publications/enroute-2026/download,169
APNIN,APNIN,SIGNIFICANT_POINT,NAMIBIA / FYWH FIR,-22.0200000000,17.4133333333,NCAA NAMIBIA,2025-08-07,https://www.ncaa.com.na/index.php/document-downloads/industrial-documents/aim-publications/enroute-2026/download,169
ATUPI,ATUPI,SIGNIFICANT_POINT,NAMIBIA / FYWH FIR,-23.1704833333,17.1320555556,NCAA NAMIBIA,2025-08-07,https://www.ncaa.com.na/index.php/document-downloads/industrial-documents/aim-publications/enroute-2026/download,169
AVIPU,AVIPU,SIGNIFICANT_POINT,NAMIBIA / FYWH FIR,-17.9350000000,22.4799972222,NCAA NAMIBIA,2025-08-07,https://www.ncaa.com.na/index.php/document-downloads/industrial-documents/aim-publications/enroute-2026/download,169
AVOGU,AVOGU,SIGNIFICANT_POINT,NAMIBIA / FYWH FIR,-20.0187972222,21.0002444444,NCAA NAMIBIA,2025-08-07,https://www.ncaa.com.na/index.php/document-downloads/industrial-documents/aim-publications/enroute-2026/download,169
AXODO,AXODO,SIGNIFICANT_POINT,NAMIBIA / FYWH FIR,-22.7158916667,18.3268138889,NCAA NAMIBIA,2025-08-07,https://www.ncaa.com.na/index.php/document-downloads/industrial-documents/aim-publications/enroute-2026/download,169
BOPAN,BOPAN,SIGNIFICANT_POINT,NAMIBIA / FYWH FIR,-22.4033333333,20.0000000000,NCAA NAMIBIA,2025-08-07,https://www.ncaa.com.na/index.php/document-downloads/industrial-documents/aim-publications/enroute-2026/download,169
BUGRO,BUGRO,SIGNIFICANT_POINT,NAMIBIA / FYWH FIR,-17.8366861111,22.4337250000,NCAA NAMIBIA,2025-08-07,https://www.ncaa.com.na/index.php/document-downloads/industrial-documents/aim-publications/enroute-2026/download,169
DIMIX,DIMIX,SIGNIFICANT_POINT,NAMIBIA / FYWH FIR,-17.7800000000,10.5000000000,NCAA NAMIBIA,2025-08-07,https://www.ncaa.com.na/index.php/document-downloads/industrial-documents/aim-publications/enroute-2026/download,169
DUGNU,DUGNU,SIGNIFICANT_POINT,NAMIBIA / FYWH FIR,-20.1080083333,13.6928750000,NCAA NAMIBIA,2025-08-07,https://www.ncaa.com.na/index.php/document-downloads/industrial-documents/aim-publications/enroute-2026/download,169
DULGO,DULGO,SIGNIFICANT_POINT,NAMIBIA / FYWH FIR,-25.0000000000,13.9855555556,NCAA NAMIBIA,2025-08-07,https://www.ncaa.com.na/index.php/document-downloads/industrial-documents/aim-publications/enroute-2026/download,169
DUMPO,DUMPO,SIGNIFICANT_POINT,NAMIBIA / FYWH FIR,-18.7133333333,21.0000000000,NCAA NAMIBIA,2025-08-07,https://www.ncaa.com.na/index.php/document-downloads/industrial-documents/aim-publications/enroute-2026/download,169
DUNLO,DUNLO,SIGNIFICANT_POINT,NAMIBIA / FYWH FIR,-22.0200000000,19.0416666667,NCAA NAMIBIA,2025-08-07,https://www.ncaa.com.na/index.php/document-downloads/industrial-documents/aim-publications/enroute-2026/download,169
DUNRU,DUNRU,SIGNIFICANT_POINT,NAMIBIA / FYWH FIR,-17.9561111111,19.7205555556,NCAA NAMIBIA,2025-08-07,https://www.ncaa.com.na/index.php/document-downloads/industrial-documents/aim-publications/enroute-2026/download,169
DUPKI,DUPKI,SIGNIFICANT_POINT,NAMIBIA / FYWH FIR,-21.7168333333,21.0001388889,NCAA NAMIBIA,2025-08-07,https://www.ncaa.com.na/index.php/document-downloads/industrial-documents/aim-publications/enroute-2026/download,169
DUTPU,DUTPU,SIGNIFICANT_POINT,NAMIBIA / FYWH FIR,-24.4933444444,17.8014166667,NCAA NAMIBIA,2025-08-07,https://www.ncaa.com.na/index.php/document-downloads/industrial-documents/aim-publications/enroute-2026/download,169
EGMAS,EGMAS,SIGNIFICANT_POINT,NAMIBIA / FYWH FIR,-22.9964527778,18.1687638889,NCAA NAMIBIA,2025-08-07,https://www.ncaa.com.na/index.php/document-downloads/industrial-documents/aim-publications/enroute-2026/download,169
EGPAD,EGPAD,SIGNIFICANT_POINT,NAMIBIA / FYWH FIR,-20.1016666667,18.4816666667,NCAA NAMIBIA,2025-08-07,https://www.ncaa.com.na/index.php/document-downloads/industrial-documents/aim-publications/enroute-2026/download,169
EGRED,EGRED,SIGNIFICANT_POINT,NAMIBIA / FYWH FIR,-23.4918944444,17.6374472222,NCAA NAMIBIA,2025-08-07,https://www.ncaa.com.na/index.php/document-downloads/industrial-documents/aim-publications/enroute-2026/download,169
EGRIX,EGRIX,SIGNIFICANT_POINT,NAMIBIA / FYWH FIR,-21.0864916667,14.0118833333,NCAA NAMIBIA,2025-08-07,https://www.ncaa.com.na/index.php/document-downloads/industrial-documents/aim-publications/enroute-2026/download,169
EKBOL,EKBOL,SIGNIFICANT_POINT,NAMIBIA / FYWH FIR,-20.3723166667,18.8960333333,NCAA NAMIBIA,2025-08-07,https://www.ncaa.com.na/index.php/document-downloads/industrial-documents/aim-publications/enroute-2026/download,169
EPMAG,EPMAG,SIGNIFICANT_POINT,NAMIBIA / FYWH FIR,-17.5800000000,23.6800000000,NCAA NAMIBIA,2025-08-07,https://www.ncaa.com.na/index.php/document-downloads/industrial-documents/aim-publications/enroute-2026/download,169
EPNON,EPNON,SIGNIFICANT_POINT,NAMIBIA / FYWH FIR,-17.8783333333,20.3016666667,NCAA NAMIBIA,2025-08-07,https://www.ncaa.com.na/index.php/document-downloads/industrial-documents/aim-publications/enroute-2026/download,169
EPRIS,EPRIS,SIGNIFICANT_POINT,NAMIBIA / FYWH FIR,-23.9501333333,18.4090722222,NCAA NAMIBIA,2025-08-07,https://www.ncaa.com.na/index.php/document-downloads/industrial-documents/aim-publications/enroute-2026/download,169
EPSAG,EPSAG,SIGNIFICANT_POINT,NAMIBIA / FYWH FIR,-24.4444194444,17.3336805556,NCAA NAMIBIA,2025-08-07,https://www.ncaa.com.na/index.php/document-downloads/industrial-documents/aim-publications/enroute-2026/download,169
EPTAR,EPTAR,SIGNIFICANT_POINT,NAMIBIA / FYWH FIR,-18.0650000000,21.7199972222,NCAA NAMIBIA,2025-08-07,https://www.ncaa.com.na/index.php/document-downloads/industrial-documents/aim-publications/enroute-2026/download,170
ERBIL,ERBIL,SIGNIFICANT_POINT,NAMIBIA / FYWH FIR,-21.7216277778,17.0869694444,NCAA NAMIBIA,2025-08-07,https://www.ncaa.com.na/index.php/document-downloads/industrial-documents/aim-publications/enroute-2026/download,170
ERDES,ERDES,SIGNIFICANT_POINT,NAMIBIA / FYWH FIR,-22.6075000000,17.0791666667,NCAA NAMIBIA,2025-08-07,https://www.ncaa.com.na/index.php/document-downloads/industrial-documents/aim-publications/enroute-2026/download,170
ESTAX,ESTAX,SIGNIFICANT_POINT,NAMIBIA / FYWH FIR,-22.6570416667,15.0568250000,NCAA NAMIBIA,2025-08-07,https://www.ncaa.com.na/index.php/document-downloads/industrial-documents/aim-publications/enroute-2026/download,170
ESTOV,ESTOV,SIGNIFICANT_POINT,NAMIBIA / FYWH FIR,-21.0183333333,16.6333333333,NCAA NAMIBIA,2025-08-07,https://www.ncaa.com.na/index.php/document-downloads/industrial-documents/aim-publications/enroute-2026/download,170
ETBIR,ETBIR,SIGNIFICANT_POINT,NAMIBIA / FYWH FIR,-26.3824805556,17.6459194444,NCAA NAMIBIA,2025-08-07,https://www.ncaa.com.na/index.php/document-downloads/industrial-documents/aim-publications/enroute-2026/download,170
ETUDU,ETUDU,SIGNIFICANT_POINT,NAMIBIA / FYWH FIR,-21.6666666667,12.7225500000,NCAA NAMIBIA,2025-08-07,https://www.ncaa.com.na/index.php/document-downloads/industrial-documents/aim-publications/enroute-2026/download,170
EVAGU,EVAGU,SIGNIFICANT_POINT,NAMIBIA / FYWH FIR,-18.1422138889,16.3443333333,NCAA NAMIBIA,2025-08-07,https://www.ncaa.com.na/index.php/document-downloads/industrial-documents/aim-publications/enroute-2026/download,170
EVESO,EVESO,SIGNIFICANT_POINT,NAMIBIA / FYWH FIR,-18.2835333333,19.4670472222,NCAA NAMIBIA,2025-08-07,https://www.ncaa.com.na/index.php/document-downloads/industrial-documents/aim-publications/enroute-2026/download,170
EVOMO,EVOMO,SIGNIFICANT_POINT,NAMIBIA / FYWH FIR,-25.0245000000,17.4261555556,NCAA NAMIBIA,2025-08-07,https://www.ncaa.com.na/index.php/document-downloads/industrial-documents/aim-publications/enroute-2026/download,170
EVUVI,EVUVI,SIGNIFICANT_POINT,NAMIBIA / FYWH FIR,-17.4028250000,14.3561527778,NCAA NAMIBIA,2025-08-07,https://www.ncaa.com.na/index.php/document-downloads/industrial-documents/aim-publications/enroute-2026/download,170
EXEDU,EXEDU,SIGNIFICANT_POINT,NAMIBIA / FYWH FIR,-18.9333333333,22.4666666667,NCAA NAMIBIA,2025-08-07,https://www.ncaa.com.na/index.php/document-downloads/industrial-documents/aim-publications/enroute-2026/download,170
EXERA,EXERA,SIGNIFICANT_POINT,NAMIBIA / FYWH FIR,-18.0916666667,21.5516638889,NCAA NAMIBIA,2025-08-07,https://www.ncaa.com.na/index.php/document-downloads/industrial-documents/aim-publications/enroute-2026/download,170
EXIRI,EXIRI,SIGNIFICANT_POINT,NAMIBIA / FYWH FIR,-18.7089833333,19.8388666667,NCAA NAMIBIA,2025-08-07,https://www.ncaa.com.na/index.php/document-downloads/industrial-documents/aim-publications/enroute-2026/download,170
GABSI,GABSI,SIGNIFICANT_POINT,NAMIBIA / FYWH FIR,-24.3297361111,20.0015388889,NCAA NAMIBIA,2025-08-07,https://www.ncaa.com.na/index.php/document-downloads/industrial-documents/aim-publications/enroute-2026/download,170
GENIX,GENIX,SIGNIFICANT_POINT,NAMIBIA / FYWH FIR,-18.2066666667,23.4283333333,NCAA NAMIBIA,2025-08-07,https://www.ncaa.com.na/index.php/document-downloads/industrial-documents/aim-publications/enroute-2026/download,170
GEPAS,GEPAS,SIGNIFICANT_POINT,NAMIBIA / FYWH FIR,-21.8250000000,18.5616666667,NCAA NAMIBIA,2025-08-07,https://www.ncaa.com.na/index.php/document-downloads/industrial-documents/aim-publications/enroute-2026/download,170
GEPOP,GEPOP,SIGNIFICANT_POINT,NAMIBIA / FYWH FIR,-20.8607472222,19.6513722222,NCAA NAMIBIA,2025-08-07,https://www.ncaa.com.na/index.php/document-downloads/industrial-documents/aim-publications/enroute-2026/download,170
GETEM,GETEM,SIGNIFICANT_POINT,NAMIBIA / FYWH FIR,-21.6558000000,18.1525500000,NCAA NAMIBIA,2025-08-07,https://www.ncaa.com.na/index.php/document-downloads/industrial-documents/aim-publications/enroute-2026/download,170
GUBAG,GUBAG,SIGNIFICANT_POINT,NAMIBIA / FYWH FIR,-18.0000000000,9.6666666667,NCAA NAMIBIA,2025-08-07,https://www.ncaa.com.na/index.php/document-downloads/industrial-documents/aim-publications/enroute-2026/download,170
IBKIN,IBKIN,SIGNIFICANT_POINT,NAMIBIA / FYWH FIR,-21.8366305556,18.0466250000,NCAA NAMIBIA,2025-08-07,https://www.ncaa.com.na/index.php/document-downloads/industrial-documents/aim-publications/enroute-2026/download,170
IBNEV,IBNEV,SIGNIFICANT_POINT,NAMIBIA / FYWH FIR,-18.7850000000,11.6680555556,NCAA NAMIBIA,2025-08-07,https://www.ncaa.com.na/index.php/document-downloads/industrial-documents/aim-publications/enroute-2026/download,170
IBTAG,IBTAG,SIGNIFICANT_POINT,NAMIBIA / FYWH FIR,-18.0446333333,20.2093666667,NCAA NAMIBIA,2025-08-07,https://www.ncaa.com.na/index.php/document-downloads/industrial-documents/aim-publications/enroute-2026/download,170
IBTOP,IBTOP,SIGNIFICANT_POINT,NAMIBIA / FYWH FIR,-27.0894833333,20.3972194444,NCAA NAMIBIA,2025-08-07,https://www.ncaa.com.na/index.php/document-downloads/industrial-documents/aim-publications/enroute-2026/download,170
IBVOB,IBVOB,SIGNIFICANT_POINT,NAMIBIA / FYWH FIR,-22.3950000000,16.9500000000,NCAA NAMIBIA,2025-08-07,https://www.ncaa.com.na/index.php/document-downloads/industrial-documents/aim-publications/enroute-2026/download,170
IMDIP,IMDIP,SIGNIFICANT_POINT,NAMIBIA / FYWH FIR,-17.9000000000,23.8283333333,NCAA NAMIBIA,2025-08-07,https://www.ncaa.com.na/index.php/document-downloads/industrial-documents/aim-publications/enroute-2026/download,170
IMGAG,IMGAG,SIGNIFICANT_POINT,NAMIBIA / FYWH FIR,-18.5583333333,16.0800000000,NCAA NAMIBIA,2025-08-07,https://www.ncaa.com.na/index.php/document-downloads/industrial-documents/aim-publications/enroute-2026/download,170
IMGET,IMGET,SIGNIFICANT_POINT,NAMIBIA / FYWH FIR,-21.4783333333,17.7183333333,NCAA NAMIBIA,2025-08-07,https://www.ncaa.com.na/index.php/document-downloads/industrial-documents/aim-publications/enroute-2026/download,170
IMKED,IMKED,SIGNIFICANT_POINT,NAMIBIA / FYWH FIR,-21.5200000000,20.6850000000,NCAA NAMIBIA,2025-08-07,https://www.ncaa.com.na/index.php/document-downloads/industrial-documents/aim-publications/enroute-2026/download,170
IMLAN,IMLAN,SIGNIFICANT_POINT,NAMIBIA / FYWH FIR,-24.9855500000,20.3281083333,NCAA NAMIBIA,2025-08-07,https://www.ncaa.com.na/index.php/document-downloads/industrial-documents/aim-publications/enroute-2026/download,170
IMPIG,IMPIG,SIGNIFICANT_POINT,NAMIBIA / FYWH FIR,-21.7034861111,18.2683416667,NCAA NAMIBIA,2025-08-07,https://www.ncaa.com.na/index.php/document-downloads/industrial-documents/aim-publications/enroute-2026/download,170
IMRUG,IMRUG,SIGNIFICANT_POINT,NAMIBIA / FYWH FIR,-25.0188861111,15.3196694444,NCAA NAMIBIA,2025-08-07,https://www.ncaa.com.na/index.php/document-downloads/industrial-documents/aim-publications/enroute-2026/download,170
IMSOK,IMSOK,SIGNIFICANT_POINT,NAMIBIA / FYWH FIR,-22.4395972222,16.5719527778,NCAA NAMIBIA,2025-08-07,https://www.ncaa.com.na/index.php/document-downloads/industrial-documents/aim-publications/enroute-2026/download,170
IXEPA,IXEPA,SIGNIFICANT_POINT,NAMIBIA / FYWH FIR,-19.6558611111,13.5467555556,NCAA NAMIBIA,2025-08-07,https://www.ncaa.com.na/index.php/document-downloads/industrial-documents/aim-publications/enroute-2026/download,170
KEBAT,KEBAT,SIGNIFICANT_POINT,NAMIBIA / FYWH FIR,-27.5000000000,18.3000000000,NCAA NAMIBIA,2025-08-07,https://www.ncaa.com.na/index.php/document-downloads/industrial-documents/aim-publications/enroute-2026/download,170
KELKY,KELKY,SIGNIFICANT_POINT,NAMIBIA / FYWH FIR,-26.5374138889,18.1136361111,NCAA NAMIBIA,2025-08-07,https://www.ncaa.com.na/index.php/document-downloads/industrial-documents/aim-publications/enroute-2026/download,170
LONOD,LONOD,SIGNIFICANT_POINT,NAMIBIA / FYWH FIR,-23.3000000000,17.6000000000,NCAA NAMIBIA,2025-08-07,https://www.ncaa.com.na/index.php/document-downloads/industrial-documents/aim-publications/enroute-2026/download,170
NERIB,NERIB,SIGNIFICANT_POINT,NAMIBIA / FYWH FIR,-17.7116666667,23.7449972222,NCAA NAMIBIA,2025-08-07,https://www.ncaa.com.na/index.php/document-downloads/industrial-documents/aim-publications/enroute-2026/download,171
NETEN,NETEN,SIGNIFICANT_POINT,NAMIBIA / FYWH FIR,-18.1850000000,21.0000000000,NCAA NAMIBIA,2025-08-07,https://www.ncaa.com.na/index.php/document-downloads/industrial-documents/aim-publications/enroute-2026/download,171
NETOG,NETOG,SIGNIFICANT_POINT,NAMIBIA / FYWH FIR,-22.3354583333,16.5943083333,NCAA NAMIBIA,2025-08-07,https://www.ncaa.com.na/index.php/document-downloads/industrial-documents/aim-publications/enroute-2026/download,171
NEVAR,NEVAR,SIGNIFICANT_POINT,NAMIBIA / FYWH FIR,-27.5134277778,17.8327194444,NCAA NAMIBIA,2025-08-07,https://www.ncaa.com.na/index.php/document-downloads/industrial-documents/aim-publications/enroute-2026/download,171
NEVEP,NEVEP,SIGNIFICANT_POINT,NAMIBIA / FYWH FIR,-20.3333333333,12.2345666667,NCAA NAMIBIA,2025-08-07,https://www.ncaa.com.na/index.php/document-downloads/industrial-documents/aim-publications/enroute-2026/download,171
NIBEK,NIBEK,SIGNIFICANT_POINT,NAMIBIA / FYWH FIR,-22.9752777778,13.2150000000,NCAA NAMIBIA,2025-08-07,https://www.ncaa.com.na/index.php/document-downloads/industrial-documents/aim-publications/enroute-2026/download,171
NIGAM,NIGAM,SIGNIFICANT_POINT,NAMIBIA / FYWH FIR,-26.5656111111,14.6194444444,NCAA NAMIBIA,2025-08-07,https://www.ncaa.com.na/index.php/document-downloads/industrial-documents/aim-publications/enroute-2026/download,171
ODOTU,ODOTU,SIGNIFICANT_POINT,NAMIBIA / FYWH FIR,-17.1666666667,11.9666666667,NCAA NAMIBIA,2025-08-07,https://www.ncaa.com.na/index.php/document-downloads/industrial-documents/aim-publications/enroute-2026/download,171
OKDOL,OKDOL,SIGNIFICANT_POINT,NAMIBIA / FYWH FIR,-17.1300000000,12.7450000000,NCAA NAMIBIA,2025-08-07,https://www.ncaa.com.na/index.php/document-downloads/industrial-documents/aim-publications/enroute-2026/download,171
OKLAV,OKLAV,SIGNIFICANT_POINT,NAMIBIA / FYWH FIR,-24.5933083333,18.8068305556,NCAA NAMIBIA,2025-08-07,https://www.ncaa.com.na/index.php/document-downloads/industrial-documents/aim-publications/enroute-2026/download,171
OKMOM,OKMOM,SIGNIFICANT_POINT,NAMIBIA / FYWH FIR,-22.5666666667,16.9900000000,NCAA NAMIBIA,2025-08-07,https://www.ncaa.com.na/index.php/document-downloads/industrial-documents/aim-publications/enroute-2026/download,171
OKRED,OKRED,SIGNIFICANT_POINT,NAMIBIA / FYWH FIR,-21.0116666667,19.8866666667,NCAA NAMIBIA,2025-08-07,https://www.ncaa.com.na/index.php/document-downloads/industrial-documents/aim-publications/enroute-2026/download,171
OKROP,OKROP,SIGNIFICANT_POINT,NAMIBIA / FYWH FIR,-17.6341694444,24.1766638889,NCAA NAMIBIA,2025-05-15,https://www.ncaa.com.na/index.php/document-downloads/industrial-documents/aim-publications/enroute-2026/download,176
OKSUN,OKSUN,SIGNIFICANT_POINT,NAMIBIA / FYWH FIR,-22.1072222222,16.8833333333,NCAA NAMIBIA,2025-08-07,https://www.ncaa.com.na/index.php/document-downloads/industrial-documents/aim-publications/enroute-2026/download,171
OMATA,OMATA,SIGNIFICANT_POINT,NAMIBIA / FYWH FIR,-20.8161111111,17.2622222222,NCAA NAMIBIA,2025-08-07,https://www.ncaa.com.na/index.php/document-downloads/industrial-documents/aim-publications/enroute-2026/download,171
OTAVI,OTAVI,SIGNIFICANT_POINT,NAMIBIA / FYWH FIR,-19.1558333333,17.0580555556,NCAA NAMIBIA,2025-08-07,https://www.ncaa.com.na/index.php/document-downloads/industrial-documents/aim-publications/enroute-2026/download,171
PARAG,PARAG,SIGNIFICANT_POINT,NAMIBIA / FYWH FIR,-25.1166666667,17.9000000000,NCAA NAMIBIA,2025-08-07,https://www.ncaa.com.na/index.php/document-downloads/industrial-documents/aim-publications/enroute-2026/download,171
TAVAS,TAVAS,SIGNIFICANT_POINT,NAMIBIA / FYWH FIR,-21.0166666667,21.0000000000,NCAA NAMIBIA,2025-08-07,https://www.ncaa.com.na/index.php/document-downloads/industrial-documents/aim-publications/enroute-2026/download,171
TIGUT,TIGUT,SIGNIFICANT_POINT,NAMIBIA / FYWH FIR,-22.2616666667,16.9183333333,NCAA NAMIBIA,2025-08-07,https://www.ncaa.com.na/index.php/document-downloads/industrial-documents/aim-publications/enroute-2026/download,171
TIKEM,TIKEM,SIGNIFICANT_POINT,NAMIBIA / FYWH FIR,-18.7918777778,16.4548805556,NCAA NAMIBIA,2025-08-07,https://www.ncaa.com.na/index.php/document-downloads/industrial-documents/aim-publications/enroute-2026/download,171
TIMAB,TIMAB,SIGNIFICANT_POINT,NAMIBIA / FYWH FIR,-21.1570583333,16.9580583333,NCAA NAMIBIA,2025-08-07,https://www.ncaa.com.na/index.php/document-downloads/industrial-documents/aim-publications/enroute-2026/download,171
TIMED,TIMED,SIGNIFICANT_POINT,NAMIBIA / FYWH FIR,-20.3133333333,21.0000000000,NCAA NAMIBIA,2025-08-07,https://www.ncaa.com.na/index.php/document-downloads/industrial-documents/aim-publications/enroute-2026/download,171
UDKOP,UDKOP,SIGNIFICANT_POINT,NAMIBIA / FYWH FIR,-26.6825555556,15.2467305556,NCAA NAMIBIA,2025-08-07,https://www.ncaa.com.na/index.php/document-downloads/industrial-documents/aim-publications/enroute-2026/download,171
UDPOB,UDPOB,SIGNIFICANT_POINT,NAMIBIA / FYWH FIR,-25.0215333333,17.8865194444,NCAA NAMIBIA,2025-08-07,https://www.ncaa.com.na/index.php/document-downloads/industrial-documents/aim-publications/enroute-2026/download,171
UMTOL,UMTOL,SIGNIFICANT_POINT,NAMIBIA / FYWH FIR,-27.4986527778,20.6612694444,NCAA NAMIBIA,2025-08-07,https://www.ncaa.com.na/index.php/document-downloads/industrial-documents/aim-publications/enroute-2026/download,171
UNDON,UNDON,SIGNIFICANT_POINT,NAMIBIA / FYWH FIR,-17.8766666667,15.9491666667,NCAA NAMIBIA,2025-08-07,https://www.ncaa.com.na/index.php/document-downloads/industrial-documents/aim-publications/enroute-2026/download,171
UNLOK,UNLOK,SIGNIFICANT_POINT,NAMIBIA / FYWH FIR,-17.3916666667,16.8522472222,NCAA NAMIBIA,2025-08-07,https://www.ncaa.com.na/index.php/document-downloads/industrial-documents/aim-publications/enroute-2026/download,171
UNPIN,UNPIN,SIGNIFICANT_POINT,NAMIBIA / FYWH FIR,-24.1817638889,15.0414166667,NCAA NAMIBIA,2025-08-07,https://www.ncaa.com.na/index.php/document-downloads/industrial-documents/aim-publications/enroute-2026/download,171
UTANI,UTANI,SIGNIFICANT_POINT,NAMIBIA / FYWH FIR,-27.2296472222,21.0096666667,NCAA NAMIBIA,2025-08-07,https://www.ncaa.com.na/index.php/document-downloads/industrial-documents/aim-publications/enroute-2026/download,171
UTROL,UTROL,SIGNIFICANT_POINT,NAMIBIA / FYWH FIR,-22.0110055556,16.7320444444,NCAA NAMIBIA,2025-08-07,https://www.ncaa.com.na/index.php/document-downloads/industrial-documents/aim-publications/enroute-2026/download,171
UTSAL,UTSAL,SIGNIFICANT_POINT,NAMIBIA / FYWH FIR,-23.7712055556,17.6834166667,NCAA NAMIBIA,2025-08-07,https://www.ncaa.com.na/index.php/document-downloads/industrial-documents/aim-publications/enroute-2026/download,171
UTVUM,UTVUM,SIGNIFICANT_POINT,NAMIBIA / FYWH FIR,-25.6623250000,15.5344861111,NCAA NAMIBIA,2025-08-07,https://www.ncaa.com.na/index.php/document-downloads/industrial-documents/aim-publications/enroute-2026/download,171
UVARA,UVARA,SIGNIFICANT_POINT,NAMIBIA / FYWH FIR,-23.1372527778,15.5197694444,NCAA NAMIBIA,2025-08-07,https://www.ncaa.com.na/index.php/document-downloads/industrial-documents/aim-publications/enroute-2026/download,171
UVGEN,UVGEN,SIGNIFICANT_POINT,NAMIBIA / FYWH FIR,-22.5736111111,16.9566666667,NCAA NAMIBIA,2025-08-07,https://www.ncaa.com.na/index.php/document-downloads/industrial-documents/aim-publications/enroute-2026/download,171
UVKIK,UVKIK,SIGNIFICANT_POINT,NAMIBIA / FYWH FIR,-22.8927777778,15.1697222222,NCAA NAMIBIA,2025-08-07,https://www.ncaa.com.na/index.php/document-downloads/industrial-documents/aim-publications/enroute-2026/download,171
UVORI,UVORI,SIGNIFICANT_POINT,NAMIBIA / FYWH FIR,-23.2458472222,17.5969583333,NCAA NAMIBIA,2025-08-07,https://www.ncaa.com.na/index.php/document-downloads/industrial-documents/aim-publications/enroute-2026/download,171
VEDRY,VEDRY,SIGNIFICANT_POINT,NAMIBIA / FYWH FIR,-22.4773666667,17.4705750000,NCAA NAMIBIA,2025-08-07,https://www.ncaa.com.na/index.php/document-downloads/industrial-documents/aim-publications/enroute-2026/download,172
XABEB,XABEB,SIGNIFICANT_POINT,NAMIBIA / FYWH FIR,-22.7000000000,18.3430555556,NCAA NAMIBIA,2025-08-07,https://www.ncaa.com.na/index.php/document-downloads/industrial-documents/aim-publications/enroute-2026/download,172
XABLO,XABLO,SIGNIFICANT_POINT,NAMIBIA / FYWH FIR,-21.4233555556,21.0000000000,NCAA NAMIBIA,2025-08-07,https://www.ncaa.com.na/index.php/document-downloads/industrial-documents/aim-publications/enroute-2026/download,172
XALVI,XALVI,SIGNIFICANT_POINT,NAMIBIA / FYWH FIR,-22.9821083333,14.6445777778,NCAA NAMIBIA,2025-08-07,https://www.ncaa.com.na/index.php/document-downloads/industrial-documents/aim-publications/enroute-2026/download,172
XAMGA,XAMGA,SIGNIFICANT_POINT,NAMIBIA / FYWH FIR,-23.1681333333,20.0040611111,NCAA NAMIBIA,2025-08-07,https://www.ncaa.com.na/index.php/document-downloads/industrial-documents/aim-publications/enroute-2026/download,172
XANBI,XANBI,SIGNIFICANT_POINT,NAMIBIA / FYWH FIR,-25.0084361111,19.0651194444,NCAA NAMIBIA,2025-08-07,https://www.ncaa.com.na/index.php/document-downloads/industrial-documents/aim-publications/enroute-2026/download,172
XORAK,XORAK,SIGNIFICANT_POINT,NAMIBIA / FYWH FIR,-23.8531222222,20.0028472222,NCAA NAMIBIA,2025-08-07,https://www.ncaa.com.na/index.php/document-downloads/industrial-documents/aim-publications/enroute-2026/download,172
XOTEK,XOTEK,SIGNIFICANT_POINT,NAMIBIA / FYWH FIR,-23.4164083333,17.1716555556,NCAA NAMIBIA,2025-08-07,https://www.ncaa.com.na/index.php/document-downloads/industrial-documents/aim-publications/enroute-2026/download,172
XORIN,XORIN,SIGNIFICANT_POINT,NAMIBIA / FYWH FIR,-17.4667222222,24.3666666667,NCAA NAMIBIA,2025-08-07,https://www.ncaa.com.na/index.php/document-downloads/industrial-documents/aim-publications/enroute-2026/download,172
XUDAN,XUDAN,SIGNIFICANT_POINT,NAMIBIA / FYWH FIR,-27.5114472222,16.1685138889,NCAA NAMIBIA,2025-08-07,https://www.ncaa.com.na/index.php/document-downloads/industrial-documents/aim-publications/enroute-2026/download,172
ANGOS,ANGOS,SIGNIFICANT_POINT,NAMIBIA / FYWH FIR,-22.4559250000,16.9933055556,NCAA NAMIBIA,2024-07-11,https://www.ncaa.com.na/index.php/document-downloads/industrial-documents/aim-publications/enroute-2026/download,173
ARRIS,ARRIS,SIGNIFICANT_POINT,NAMIBIA / FYWH FIR,-22.7512166667,17.1354722222,NCAA NAMIBIA,2024-07-11,https://www.ncaa.com.na/index.php/document-downloads/industrial-documents/aim-publications/enroute-2026/download,173
DAVIL,DAVIL,SIGNIFICANT_POINT,NAMIBIA / FYWH FIR,-22.5381222222,16.9515805556,NCAA NAMIBIA,2024-07-11,https://www.ncaa.com.na/index.php/document-downloads/industrial-documents/aim-publications/enroute-2026/download,173
GORNG,GORNG,SIGNIFICANT_POINT,NAMIBIA / FYWH FIR,-22.5286027778,17.0086111111,NCAA NAMIBIA,2024-07-11,https://www.ncaa.com.na/index.php/document-downloads/industrial-documents/aim-publications/enroute-2026/download,173
HAVIS,HAVIS,SIGNIFICANT_POINT,NAMIBIA / FYWH FIR,-22.5736888889,17.1306111111,NCAA NAMIBIA,2024-07-11,https://www.ncaa.com.na/index.php/document-downloads/industrial-documents/aim-publications/enroute-2026/download,173
HEJAL,HEJAL,SIGNIFICANT_POINT,NAMIBIA / FYWH FIR,-22.5363388889,17.1945250000,NCAA NAMIBIA,2024-07-11,https://www.ncaa.com.na/index.php/document-downloads/industrial-documents/aim-publications/enroute-2026/download,173
HTONI,HTONI,SIGNIFICANT_POINT,NAMIBIA / FYWH FIR,-22.5693861111,17.0001777778,NCAA NAMIBIA,2024-07-11,https://www.ncaa.com.na/index.php/document-downloads/industrial-documents/aim-publications/enroute-2026/download,173
HUNAM,HUNAM,SIGNIFICANT_POINT,NAMIBIA / FYWH FIR,-22.6115666667,17.0569222222,NCAA NAMIBIA,2024-07-11,https://www.ncaa.com.na/index.php/document-downloads/industrial-documents/aim-publications/enroute-2026/download,173
KUPFE,KUPFE,SIGNIFICANT_POINT,NAMIBIA / FYWH FIR,-22.6571305556,17.0009305556,NCAA NAMIBIA,2024-07-11,https://www.ncaa.com.na/index.php/document-downloads/industrial-documents/aim-publications/enroute-2026/download,173
MAAST,MAAST,SIGNIFICANT_POINT,NAMIBIA / FYWH FIR,-22.6743722222,17.1110888889,NCAA NAMIBIA,2024-07-11,https://www.ncaa.com.na/index.php/document-downloads/industrial-documents/aim-publications/enroute-2026/download,173
OTJIS,OTJIS,SIGNIFICANT_POINT,NAMIBIA / FYWH FIR,-22.4254666667,17.1747194444,NCAA NAMIBIA,2024-07-11,https://www.ncaa.com.na/index.php/document-downloads/industrial-documents/aim-publications/enroute-2026/download,173
POWSN,POWSN,SIGNIFICANT_POINT,NAMIBIA / FYWH FIR,-22.5120777778,17.0789305556,NCAA NAMIBIA,2024-07-11,https://www.ncaa.com.na/index.php/document-downloads/industrial-documents/aim-publications/enroute-2026/download,173
BOOAY,BOOAY,SIGNIFICANT_POINT,NAMIBIA / FYWH FIR,-26.4591666667,15.1147222222,NCAA NAMIBIA,2024-07-11,https://www.ncaa.com.na/index.php/document-downloads/industrial-documents/aim-publications/enroute-2026/download,173
LIZPO,LIZPO,SIGNIFICANT_POINT,NAMIBIA / FYWH FIR,-26.9244444444,15.1905555556,NCAA NAMIBIA,2024-07-11,https://www.ncaa.com.na/index.php/document-downloads/industrial-documents/aim-publications/enroute-2026/download,173
KOPOW,KOPOW,SIGNIFICANT_POINT,NAMIBIA / FYWH FIR,-26.7061111111,15.3638888889,NCAA NAMIBIA,2024-07-11,https://www.ncaa.com.na/index.php/document-downloads/industrial-documents/aim-publications/enroute-2026/download,173
KOICH,KOICH,SIGNIFICANT_POINT,NAMIBIA / FYWH FIR,-26.4319444444,15.4858333333,NCAA NAMIBIA,2024-07-11,https://www.ncaa.com.na/index.php/document-downloads/industrial-documents/aim-publications/enroute-2026/download,173
ABLAN,ABLAN,SIGNIFICANT_POINT,NAMIBIA / FYWH FIR,-22.8094444444,14.5927777778,NCAA NAMIBIA,2024-07-11,https://www.ncaa.com.na/index.php/document-downloads/industrial-documents/aim-publications/enroute-2026/download,174
LANGA,LANGA,SIGNIFICANT_POINT,NAMIBIA / FYWH FIR,-22.8094444444,14.5438888889,NCAA NAMIBIA,2024-07-11,https://www.ncaa.com.na/index.php/document-downloads/industrial-documents/aim-publications/enroute-2026/download,174
PELIC,PELIC,SIGNIFICANT_POINT,NAMIBIA / FYWH FIR,-22.9283333333,14.4350000000,NCAA NAMIBIA,2024-07-11,https://www.ncaa.com.na/index.php/document-downloads/industrial-documents/aim-publications/enroute-2026/download,174
ROIBA,ROIBA,SIGNIFICANT_POINT,NAMIBIA / FYWH FIR,-23.1794444444,14.6494444444,NCAA NAMIBIA,2024-07-11,https://www.ncaa.com.na/index.php/document-downloads/industrial-documents/aim-publications/enroute-2026/download,174
SALTY,SALTY,SIGNIFICANT_POINT,NAMIBIA / FYWH FIR,-23.0125000000,14.4080555556,NCAA NAMIBIA,2024-07-11,https://www.ncaa.com.na/index.php/document-downloads/industrial-documents/aim-publications/enroute-2026/download,174
SANDY,SANDY,SIGNIFICANT_POINT,NAMIBIA / FYWH FIR,-23.3744444444,14.4744444444,NCAA NAMIBIA,2024-07-11,https://www.ncaa.com.na/index.php/document-downloads/industrial-documents/aim-publications/enroute-2026/download,174
TERMI,TERMI,SIGNIFICANT_POINT,NAMIBIA / FYWH FIR,-22.9050000000,14.5216666667,NCAA NAMIBIA,2024-07-11,https://www.ncaa.com.na/index.php/document-downloads/industrial-documents/aim-publications/enroute-2026/download,174
TOWER,TOWER,SIGNIFICANT_POINT,NAMIBIA / FYWH FIR,-22.9772222222,14.6447222222,NCAA NAMIBIA,2024-07-11,https://www.ncaa.com.na/index.php/document-downloads/industrial-documents/aim-publications/enroute-2026/download,174
VOGEL,VOGEL,SIGNIFICANT_POINT,NAMIBIA / FYWH FIR,-23.0513888889,14.9975000000,NCAA NAMIBIA,2024-07-11,https://www.ncaa.com.na/index.php/document-downloads/industrial-documents/aim-publications/enroute-2026/download,174
WALMU,WALMU,SIGNIFICANT_POINT,NAMIBIA / FYWH FIR,-22.7666666667,14.7377777778,NCAA NAMIBIA,2024-07-11,https://www.ncaa.com.na/index.php/document-downloads/industrial-documents/aim-publications/enroute-2026/download,174
ANTAV,ANTAV,SIGNIFICANT_POINT,NAMIBIA / FYWH FIR,-22.6755861111,17.3749388889,NCAA NAMIBIA,2024-07-11,https://www.ncaa.com.na/index.php/document-downloads/industrial-documents/aim-publications/enroute-2026/download,174
APLIN,APLIN,SIGNIFICANT_POINT,NAMIBIA / FYWH FIR,-23.0417888889,14.3814972222,NCAA NAMIBIA,2024-07-11,https://www.ncaa.com.na/index.php/document-downloads/industrial-documents/aim-publications/enroute-2026/download,174
APNAV,APNAV,SIGNIFICANT_POINT,NAMIBIA / FYWH FIR,-26.8725527778,15.2775333333,NCAA NAMIBIA,2024-07-11,https://www.ncaa.com.na/index.php/document-downloads/industrial-documents/aim-publications/enroute-2026/download,174
APNUL,APNUL,SIGNIFICANT_POINT,NAMIBIA / FYWH FIR,-22.6158333333,17.1752777778,NCAA NAMIBIA,2024-07-11,https://www.ncaa.com.na/index.php/document-downloads/industrial-documents/aim-publications/enroute-2026/download,174
COOEE,COOEE,SIGNIFICANT_POINT,NAMIBIA / FYWH FIR,-22.7462222222,17.5030527778,NCAA NAMIBIA,2024-07-11,https://www.ncaa.com.na/index.php/document-downloads/industrial-documents/aim-publications/enroute-2026/download,174
DINKM,DINKM,SIGNIFICANT_POINT,NAMIBIA / FYWH FIR,-22.4444166667,17.8260305556,NCAA NAMIBIA,2024-07-11,https://www.ncaa.com.na/index.php/document-downloads/industrial-documents/aim-publications/enroute-2026/download,174
DUDRU,DUDRU,SIGNIFICANT_POINT,NAMIBIA / FYWH FIR,-28.3929000000,16.5423777778,NCAA NAMIBIA,2024-07-11,https://www.ncaa.com.na/index.php/document-downloads/industrial-documents/aim-publications/enroute-2026/download,174
DUMSO,DUMSO,SIGNIFICANT_POINT,NAMIBIA / FYWH FIR,-22.3917333333,17.1344416667,NCAA NAMIBIA,2024-07-11,https://www.ncaa.com.na/index.php/document-downloads/industrial-documents/aim-publications/enroute-2026/download,174
DUNBA,DUNBA,SIGNIFICANT_POINT,NAMIBIA / FYWH FIR,-22.6275888889,17.4675416667,NCAA NAMIBIA,2024-07-11,https://www.ncaa.com.na/index.php/document-downloads/industrial-documents/aim-publications/enroute-2026/download,174
EGLIK,EGLIK,SIGNIFICANT_POINT,NAMIBIA / FYWH FIR,-22.8525194444,17.2871305556,NCAA NAMIBIA,2025-05-15,https://www.ncaa.com.na/index.php/document-downloads/industrial-documents/aim-publications/enroute-2026/download,175
EGVEM,EGVEM,SIGNIFICANT_POINT,NAMIBIA / FYWH FIR,-17.8767555556,15.7445916667,NCAA NAMIBIA,2025-05-15,https://www.ncaa.com.na/index.php/document-downloads/industrial-documents/aim-publications/enroute-2026/download,175
ESVAB,ESVAB,SIGNIFICANT_POINT,NAMIBIA / FYWH FIR,-17.9874972222,15.7010638889,NCAA NAMIBIA,2025-05-15,https://www.ncaa.com.na/index.php/document-downloads/industrial-documents/aim-publications/enroute-2026/download,175
ETLAX,ETLAX,SIGNIFICANT_POINT,NAMIBIA / FYWH FIR,-23.2601305556,14.7083777778,NCAA NAMIBIA,2025-05-15,https://www.ncaa.com.na/index.php/document-downloads/industrial-documents/aim-publications/enroute-2026/download,175
ETOPA,ETOPA,SIGNIFICANT_POINT,NAMIBIA / FYWH FIR,-26.8239611111,15.0992388889,NCAA NAMIBIA,2025-05-15,https://www.ncaa.com.na/index.php/document-downloads/industrial-documents/aim-publications/enroute-2026/download,175
FIDLA,FIDLA,SIGNIFICANT_POINT,NAMIBIA / FYWH FIR,-18.0395444444,19.4551805556,NCAA NAMIBIA,2025-05-15,https://www.ncaa.com.na/index.php/document-downloads/industrial-documents/aim-publications/enroute-2026/download,175
GETET,GETET,SIGNIFICANT_POINT,NAMIBIA / FYWH FIR,-22.4014055556,17.7474222222,NCAA NAMIBIA,2025-05-15,https://www.ncaa.com.na/index.php/document-downloads/industrial-documents/aim-publications/enroute-2026/download,175
GLAMA,GLAMA,SIGNIFICANT_POINT,NAMIBIA / FYWH FIR,-22.4840472222,17.7575333333,NCAA NAMIBIA,2025-05-15,https://www.ncaa.com.na/index.php/document-downloads/industrial-documents/aim-publications/enroute-2026/download,175
GUNDU,GUNDU,SIGNIFICANT_POINT,NAMIBIA / FYWH FIR,-22.9025805556,14.9013333333,NCAA NAMIBIA,2025-05-15,https://www.ncaa.com.na/index.php/document-downloads/industrial-documents/aim-publications/enroute-2026/download,175
HERSH,HERSH,SIGNIFICANT_POINT,NAMIBIA / FYWH FIR,-26.4375833333,15.3272000000,NCAA NAMIBIA,2025-05-15,https://www.ncaa.com.na/index.php/document-downloads/industrial-documents/aim-publications/enroute-2026/download,175
IBLAS,IBLAS,SIGNIFICANT_POINT,NAMIBIA / FYWH FIR,-17.7689833333,16.2040472222,NCAA NAMIBIA,2025-05-15,https://www.ncaa.com.na/index.php/document-downloads/industrial-documents/aim-publications/enroute-2026/download,175
IBMUX,IBMUX,SIGNIFICANT_POINT,NAMIBIA / FYWH FIR,-18.0291416667,15.8168138889,NCAA NAMIBIA,2025-05-15,https://www.ncaa.com.na/index.php/document-downloads/industrial-documents/aim-publications/enroute-2026/download,175
IBREX,IBREX,SIGNIFICANT_POINT,NAMIBIA / FYWH FIR,-28.7766583333,16.3499916667,NCAA NAMIBIA,2025-05-15,https://www.ncaa.com.na/index.php/document-downloads/industrial-documents/aim-publications/enroute-2026/download,175
IBSAD,IBSAD,SIGNIFICANT_POINT,NAMIBIA / FYWH FIR,-22.5442111111,17.1716388889,NCAA NAMIBIA,2025-05-15,https://www.ncaa.com.na/index.php/document-downloads/industrial-documents/aim-publications/enroute-2026/download,175
IMLIK,IMLIK,SIGNIFICANT_POINT,NAMIBIA / FYWH FIR,-23.1108722222,14.5022472222,NCAA NAMIBIA,2025-05-15,https://www.ncaa.com.na/index.php/document-downloads/industrial-documents/aim-publications/enroute-2026/download,175
IMPEP,IMPEP,SIGNIFICANT_POINT,NAMIBIA / FYWH FIR,-22.3903277778,17.6649888889,NCAA NAMIBIA,2025-05-15,https://www.ncaa.com.na/index.php/document-downloads/industrial-documents/aim-publications/enroute-2026/download,175
IMTES,IMTES,SIGNIFICANT_POINT,NAMIBIA / FYWH FIR,-17.8797500000,16.1606194444,NCAA NAMIBIA,2025-05-15,https://www.ncaa.com.na/index.php/document-downloads/industrial-documents/aim-publications/enroute-2026/download,175
ISAAC,ISAAC,SIGNIFICANT_POINT,NAMIBIA / FYWH FIR,-22.8700222222,17.1232083333,NCAA NAMIBIA,2025-05-15,https://www.ncaa.com.na/index.php/document-downloads/industrial-documents/aim-publications/enroute-2026/download,175
JOWEE,JOWEE,SIGNIFICANT_POINT,NAMIBIA / FYWH FIR,-22.2448472222,17.4409944444,NCAA NAMIBIA,2025-05-15,https://www.ncaa.com.na/index.php/document-downloads/industrial-documents/aim-publications/enroute-2026/download,175
KAPPI,KAPPI,SIGNIFICANT_POINT,NAMIBIA / FYWH FIR,-22.3219111111,17.0318250000,NCAA NAMIBIA,2025-05-15,https://www.ncaa.com.na/index.php/document-downloads/industrial-documents/aim-publications/enroute-2026/download,175
KM09A,KM09A,SIGNIFICANT_POINT,NAMIBIA / FYWH FIR,-17.7647333333,23.9998611111,NCAA NAMIBIA,2025-05-15,https://www.ncaa.com.na/index.php/document-downloads/industrial-documents/aim-publications/enroute-2026/download,175
KM09B,KM09B,SIGNIFICANT_POINT,NAMIBIA / FYWH FIR,-17.6824555556,23.8791166667,NCAA NAMIBIA,2025-05-15,https://www.ncaa.com.na/index.php/document-downloads/industrial-documents/aim-publications/enroute-2026/download,175
KM27E,KM27E,SIGNIFICANT_POINT,NAMIBIA / FYWH FIR,-17.5853138889,24.4749194444,NCAA NAMIBIA,2025-05-15,https://www.ncaa.com.na/index.php/document-downloads/industrial-documents/aim-publications/enroute-2026/download,175
KM27G,KM27G,SIGNIFICANT_POINT,NAMIBIA / FYWH FIR,-17.7012222222,24.3893833333,NCAA NAMIBIA,2025-05-15,https://www.ncaa.com.na/index.php/document-downloads/industrial-documents/aim-publications/enroute-2026/download,175
KT04A,KT04A,SIGNIFICANT_POINT,NAMIBIA / FYWH FIR,-26.7309250000,18.1476222222,NCAA NAMIBIA,2025-05-15,https://www.ncaa.com.na/index.php/document-downloads/industrial-documents/aim-publications/enroute-2026/download,175
KT04B,KT04B,SIGNIFICANT_POINT,NAMIBIA / FYWH FIR,-26.7884305556,18.0325972222,NCAA NAMIBIA,2025-05-15,https://www.ncaa.com.na/index.php/document-downloads/industrial-documents/aim-publications/enroute-2026/download,176
KT04C,KT04C,SIGNIFICANT_POINT,NAMIBIA / FYWH FIR,-26.6851333333,17.9686305556,NCAA NAMIBIA,2025-05-15,https://www.ncaa.com.na/index.php/document-downloads/industrial-documents/aim-publications/enroute-2026/download,176
KT22D,KT22D,SIGNIFICANT_POINT,NAMIBIA / FYWH FIR,-26.3468333333,18.0760305556,NCAA NAMIBIA,2025-05-15,https://www.ncaa.com.na/index.php/document-downloads/industrial-documents/aim-publications/enroute-2026/download,176
KT22E,KT22E,SIGNIFICANT_POINT,NAMIBIA / FYWH FIR,-26.2893750000,18.1906472222,NCAA NAMIBIA,2025-05-15,https://www.ncaa.com.na/index.php/document-downloads/industrial-documents/aim-publications/enroute-2026/download,176
KT22G,KT22G,SIGNIFICANT_POINT,NAMIBIA / FYWH FIR,-26.3926277778,18.2544972222,NCAA NAMIBIA,2025-05-15,https://www.ncaa.com.na/index.php/document-downloads/industrial-documents/aim-publications/enroute-2026/download,176
NEXET,NEXET,SIGNIFICANT_POINT,NAMIBIA / FYWH FIR,-23.0410555556,14.9449444444,NCAA NAMIBIA,2025-05-15,https://www.ncaa.com.na/index.php/document-downloads/industrial-documents/aim-publications/enroute-2026/download,176
NIKAN,NIKAN,SIGNIFICANT_POINT,NAMIBIA / FYWH FIR,-26.4932305556,15.2113416667,NCAA NAMIBIA,2025-05-15,https://www.ncaa.com.na/index.php/document-downloads/industrial-documents/aim-publications/enroute-2026/download,176
NIKER,NIKER,SIGNIFICANT_POINT,NAMIBIA / FYWH FIR,-22.5882694444,17.5496944444,NCAA NAMIBIA,2025-05-15,https://www.ncaa.com.na/index.php/document-downloads/industrial-documents/aim-publications/enroute-2026/download,176
OKBUT,OKBUT,SIGNIFICANT_POINT,NAMIBIA / FYWH FIR,-28.8608222222,16.4441555556,NCAA NAMIBIA,2025-05-15,https://www.ncaa.com.na/index.php/document-downloads/industrial-documents/aim-publications/enroute-2026/download,176
OKTIV,OKTIV,SIGNIFICANT_POINT,NAMIBIA / FYWH FIR,-22.6808194444,17.6403194444,NCAA NAMIBIA,2025-05-15,https://www.ncaa.com.na/index.php/document-downloads/industrial-documents/aim-publications/enroute-2026/download,176
PABLO,PABLO,SIGNIFICANT_POINT,NAMIBIA / FYWH FIR,-17.9789777778,19.9277111111,NCAA NAMIBIA,2025-05-15,https://www.ncaa.com.na/index.php/document-downloads/industrial-documents/aim-publications/enroute-2026/download,176
PASAN,PASAN,SIGNIFICANT_POINT,NAMIBIA / FYWH FIR,-28.7778250000,16.5396500000,NCAA NAMIBIA,2025-05-15,https://www.ncaa.com.na/index.php/document-downloads/industrial-documents/aim-publications/enroute-2026/download,176
PERCY,PERCY,SIGNIFICANT_POINT,NAMIBIA / FYWH FIR,-22.9518250000,14.4464111111,NCAA NAMIBIA,2025-05-15,https://www.ncaa.com.na/index.php/document-downloads/industrial-documents/aim-publications/enroute-2026/download,176
PIERE,PIERE,SIGNIFICANT_POINT,NAMIBIA / FYWH FIR,-22.8459222222,14.7983694444,NCAA NAMIBIA,2025-05-15,https://www.ncaa.com.na/index.php/document-downloads/industrial-documents/aim-publications/enroute-2026/download,176
SCANO,SCANO,SIGNIFICANT_POINT,NAMIBIA / FYWH FIR,-22.9006416667,14.8836027778,NCAA NAMIBIA,2025-05-15,https://www.ncaa.com.na/index.php/document-downloads/industrial-documents/aim-publications/enroute-2026/download,176
SUDOG,SUDOG,SIGNIFICANT_POINT,NAMIBIA / FYWH FIR,-22.5208194444,17.6881583333,NCAA NAMIBIA,2025-05-15,https://www.ncaa.com.na/index.php/document-downloads/industrial-documents/aim-publications/enroute-2026/download,176
TESUM,TESUM,SIGNIFICANT_POINT,NAMIBIA / FYWH FIR,-26.9282472222,15.1612638889,NCAA NAMIBIA,2025-05-15,https://www.ncaa.com.na/index.php/document-downloads/industrial-documents/aim-publications/enroute-2026/download,176
TETUR,TETUR,SIGNIFICANT_POINT,NAMIBIA / FYWH FIR,-22.6960750000,17.3248861111,NCAA NAMIBIA,2025-05-15,https://www.ncaa.com.na/index.php/document-downloads/industrial-documents/aim-publications/enroute-2026/download,176
TEXET,TEXET,SIGNIFICANT_POINT,NAMIBIA / FYWH FIR,-22.4173194444,16.9566944444,NCAA NAMIBIA,2025-05-15,https://www.ncaa.com.na/index.php/document-downloads/industrial-documents/aim-publications/enroute-2026/download,176
TIGOG,TIGOG,SIGNIFICANT_POINT,NAMIBIA / FYWH FIR,-28.3917333333,16.3534111111,NCAA NAMIBIA,2025-05-15,https://www.ncaa.com.na/index.php/document-downloads/industrial-documents/aim-publications/enroute-2026/download,176
TILLY,TILLY,SIGNIFICANT_POINT,NAMIBIA / FYWH FIR,-22.8001555556,17.0202777778,NCAA NAMIBIA,2025-05-15,https://www.ncaa.com.na/index.php/document-downloads/industrial-documents/aim-publications/enroute-2026/download,176
TUPPY,TUPPY,SIGNIFICANT_POINT,NAMIBIA / FYWH FIR,-18.0929083333,19.5655861111,NCAA NAMIBIA,2025-05-15,https://www.ncaa.com.na/index.php/document-downloads/industrial-documents/aim-publications/enroute-2026/download,176
UNBIT,UNBIT,SIGNIFICANT_POINT,NAMIBIA / FYWH FIR,-17.7273638889,16.0884583333,NCAA NAMIBIA,2025-05-15,https://www.ncaa.com.na/index.php/document-downloads/industrial-documents/aim-publications/enroute-2026/download,176
UNDID,UNDID,SIGNIFICANT_POINT,NAMIBIA / FYWH FIR,-22.7281138889,17.2720805556,NCAA NAMIBIA,2025-05-15,https://www.ncaa.com.na/index.php/document-downloads/industrial-documents/aim-publications/enroute-2026/download,176
UNDUN,UNDUN,SIGNIFICANT_POINT,NAMIBIA / FYWH FIR,-26.5418222222,15.3891222222,NCAA NAMIBIA,2025-05-15,https://www.ncaa.com.na/index.php/document-downloads/industrial-documents/aim-publications/enroute-2026/download,177
WILLI,WILLI,SIGNIFICANT_POINT,NAMIBIA / FYWH FIR,-17.9339500000,19.5109638889,NCAA NAMIBIA,2025-05-15,https://www.ncaa.com.na/index.php/document-downloads/industrial-documents/aim-publications/enroute-2026/download,177
XABUS,XABUS,SIGNIFICANT_POINT,NAMIBIA / FYWH FIR,-22.6634916667,17.2627888889,NCAA NAMIBIA,2025-05-15,https://www.ncaa.com.na/index.php/document-downloads/industrial-documents/aim-publications/enroute-2026/download,177
