ident,name,point_type,region,lat,lon,provider,effective_date,source_url,source_page
ALENI,ALENI,SIGNIFICANT_POINT,SOUTH AFRICA / FAJA-FACA FIR,-26.9765388889,32.1605250000,SACAA,2026-04-15,https://caasanwebsitestorage.blob.core.windows.net/aeronautical-information-publication/Enroute%20(15_APR_2026).pdf,439
ALKAT,ALKAT,SIGNIFICANT_POINT,SOUTH AFRICA / FAJA-FACA FIR,-33.1834833333,25.8520638889,SACAA,2026-04-15,https://caasanwebsitestorage.blob.core.windows.net/aeronautical-information-publication/Enroute%20(15_APR_2026).pdf,439
ANIXU,ANIXU,SIGNIFICANT_POINT,SOUTH AFRICA / FAJA-FACA FIR,-26.5055916667,27.1274055556,SACAA,2026-04-15,https://caasanwebsitestorage.blob.core.windows.net/aeronautical-information-publication/Enroute%20(15_APR_2026).pdf,439
ANTES,ANTES,SIGNIFICANT_POINT,SOUTH AFRICA / FAJA-FACA FIR,-36.8500000000,10.0000000000,SACAA,2026-04-15,https://caasanwebsitestorage.blob.core.windows.net/aeronautical-information-publication/Enroute%20(15_APR_2026).pdf,439
ANTIL,ANTIL,SIGNIFICANT_POINT,SOUTH AFRICA / FAJA-FACA FIR,-28.5063222222,16.8055694444,SACAA,2026-04-15,https://caasanwebsitestorage.blob.core.windows.net/aeronautical-information-publication/Enroute%20(15_APR_2026).pdf,439
ANTOM,ANTOM,SIGNIFICANT_POINT,SOUTH AFRICA / FAJA-FACA FIR,-29.8333333333,15.0000000000,SACAA,2026-04-15,https://caasanwebsitestorage.blob.core.windows.net/aeronautical-information-publication/Enroute%20(15_APR_2026).pdf,439
ANVAK,ANVAK,SIGNIFICANT_POINT,SOUTH AFRICA / FAJA-FACA FIR,-25.6724194444,31.9972861111,SACAA,2026-04-15,https://caasanwebsitestorage.blob.core.windows.net/aeronautical-information-publication/Enroute%20(15_APR_2026).pdf,439
ANVAR,ANVAR,SIGNIFICANT_POINT,SOUTH AFRICA / FAJA-FACA FIR,-28.0025000000,14.5623472222,SACAA,2026-04-15,https://caasanwebsitestorage.blob.core.windows.net/aeronautical-information-publication/Enroute%20(15_APR_2026).pdf,439
ANVED,ANVED,SIGNIFICANT_POINT,SOUTH AFRICA / FAJA-FACA FIR,-31.1609638889,33.1096194444,SACAA,2026-04-15,https://caasanwebsitestorage.blob.core.windows.net/aeronautical-information-publication/Enroute%20(15_APR_2026).pdf,439
ANVIT,ANVIT,SIGNIFICANT_POINT,SOUTH AFRICA / FAJA-FACA FIR,-24.6666666667,30.3833333333,SACAA,2026-04-15,https://caasanwebsitestorage.blob.core.windows.net/aeronautical-information-publication/Enroute%20(15_APR_2026).pdf,439
APDAK,APDAK,SIGNIFICANT_POINT,SOUTH AFRICA / FAJA-FACA FIR,-26.5509833333,29.0479555556,SACAA,2026-04-15,https://caasanwebsitestorage.blob.core.windows.net/aeronautical-information-publication/Enroute%20(15_APR_2026).pdf,439
APDUR,APDUR,SIGNIFICANT_POINT,SOUTH AFRICA / FAJA-FACA FIR,-28.3221250000,25.3868888889,SACAA,2026-04-15,https://caasanwebsitestorage.blob.core.windows.net/aeronautical-information-publication/Enroute%20(15_APR_2026).pdf,439
APGAP,APGAP,SIGNIFICANT_POINT,SOUTH AFRICA / FAJA-FACA FIR,-28.2865194444,31.3296833333,SACAA,2026-04-15,https://caasanwebsitestorage.blob.core.windows.net/aeronautical-information-publication/Enroute%20(15_APR_2026).pdf,439
APKAP,APKAP,SIGNIFICANT_POINT,SOUTH AFRICA / FAJA-FACA FIR,-33.9885916667,20.6921194444,SACAA,2026-04-15,https://caasanwebsitestorage.blob.core.windows.net/aeronautical-information-publication/Enroute%20(15_APR_2026).pdf,439
APKEK,APKEK,SIGNIFICANT_POINT,SOUTH AFRICA / FAJA-FACA FIR,-30.5275472222,20.1709222222,SACAA,2026-04-15,https://caasanwebsitestorage.blob.core.windows.net/aeronautical-information-publication/Enroute%20(15_APR_2026).pdf,439
APKID,APKID,SIGNIFICANT_POINT,SOUTH AFRICA / FAJA-FACA FIR,-28.2000000000,0.0000000000,SACAA,2026-04-15,https://caasanwebsitestorage.blob.core.windows.net/aeronautical-information-publication/Enroute%20(15_APR_2026).pdf,439
APKIK,APKIK,SIGNIFICANT_POINT,SOUTH AFRICA / FAJA-FACA FIR,-28.3304277778,30.5758777778,SACAA,2026-04-15,https://caasanwebsitestorage.blob.core.windows.net/aeronautical-information-publication/Enroute%20(15_APR_2026).pdf,439
APKIN,APKIN,SIGNIFICANT_POINT,SOUTH AFRICA / FAJA-FACA FIR,-34.0835111111,17.0164777778,SACAA,2026-04-15,https://caasanwebsitestorage.blob.core.windows.net/aeronautical-information-publication/Enroute%20(15_APR_2026).pdf,439
APLEN,APLEN,SIGNIFICANT_POINT,SOUTH AFRICA / FAJA-FACA FIR,-30.7607694444,22.0221666667,SACAA,2026-04-15,https://caasanwebsitestorage.blob.core.windows.net/aeronautical-information-publication/Enroute%20(15_APR_2026).pdf,439
APLIP,APLIP,SIGNIFICANT_POINT,SOUTH AFRICA / FAJA-FACA FIR,-31.4881027778,29.3868750000,SACAA,2026-04-15,https://caasanwebsitestorage.blob.core.windows.net/aeronautical-information-publication/Enroute%20(15_APR_2026).pdf,439
APLUK,APLUK,SIGNIFICANT_POINT,SOUTH AFRICA / FAJA-FACA FIR,-28.8702777778,34.4255555556,SACAA,2026-04-15,https://caasanwebsitestorage.blob.core.windows.net/aeronautical-information-publication/Enroute%20(15_APR_2026).pdf,439
APMAK,APMAK,SIGNIFICANT_POINT,SOUTH AFRICA / FAJA-FACA FIR,-28.4804888889,25.5320027778,SACAA,2026-04-15,https://caasanwebsitestorage.blob.core.windows.net/aeronautical-information-publication/Enroute%20(15_APR_2026).pdf,439
APMAT,APMAT,SIGNIFICANT_POINT,SOUTH AFRICA / FAJA-FACA FIR,-28.7899388889,30.9498972222,SACAA,2026-04-15,https://caasanwebsitestorage.blob.core.windows.net/aeronautical-information-publication/Enroute%20(15_APR_2026).pdf,439
APMIN,APMIN,SIGNIFICANT_POINT,SOUTH AFRICA / FAJA-FACA FIR,-28.0106805556,25.8577916667,SACAA,2026-04-15,https://caasanwebsitestorage.blob.core.windows.net/aeronautical-information-publication/Enroute%20(15_APR_2026).pdf,439
APMUL,APMUL,SIGNIFICANT_POINT,SOUTH AFRICA / FAJA-FACA FIR,-31.2964944444,28.1218305556,SACAA,2026-04-15,https://caasanwebsitestorage.blob.core.windows.net/aeronautical-information-publication/Enroute%20(15_APR_2026).pdf,439
APMUX,APMUX,SIGNIFICANT_POINT,SOUTH AFRICA / FAJA-FACA FIR,-24.5765527778,29.5234694444,SACAA,2026-04-15,https://caasanwebsitestorage.blob.core.windows.net/aeronautical-information-publication/Enroute%20(15_APR_2026).pdf,439
APNON,APNON,SIGNIFICANT_POINT,SOUTH AFRICA / FAJA-FACA FIR,-26.7605166667,30.7813305556,SACAA,2026-04-15,https://caasanwebsitestorage.blob.core.windows.net/aeronautical-information-publication/Enroute%20(15_APR_2026).pdf,439
APRAX,APRAX,SIGNIFICANT_POINT,SOUTH AFRICA / FAJA-FACA FIR,-28.0087972222,26.4189222222,SACAA,2026-04-15,https://caasanwebsitestorage.blob.core.windows.net/aeronautical-information-publication/Enroute%20(15_APR_2026).pdf,439
ASONI,ASONI,SIGNIFICANT_POINT,SOUTH AFRICA / FAJA-FACA FIR,-29.3333333333,10.0000000000,SACAA,2026-04-15,https://caasanwebsitestorage.blob.core.windows.net/aeronautical-information-publication/Enroute%20(15_APR_2026).pdf,439
ASPIK,ASPIK,SIGNIFICANT_POINT,SOUTH AFRICA / FAJA-FACA FIR,-34.1050888889,18.1335583333,SACAA,2026-04-15,https://caasanwebsitestorage.blob.core.windows.net/aeronautical-information-publication/Enroute%20(15_APR_2026).pdf,439
ATUXO,ATUXO,SIGNIFICANT_POINT,SOUTH AFRICA / FAJA-FACA FIR,-27.9933250000,27.8686861111,SACAA,2026-04-15,https://caasanwebsitestorage.blob.core.windows.net/aeronautical-information-publication/Enroute%20(15_APR_2026).pdf,439
AVAGO,AVAGO,SIGNIFICANT_POINT,SOUTH AFRICA / FAJA-FACA FIR,-25.7194166667,27.4442666667,SACAA,2026-04-15,https://caasanwebsitestorage.blob.core.windows.net/aeronautical-information-publication/Enroute%20(15_APR_2026).pdf,439
AVANA,AVANA,SIGNIFICANT_POINT,SOUTH AFRICA / FAJA-FACA FIR,-37.0000000000,26.0000000000,SACAA,2026-04-15,https://caasanwebsitestorage.blob.core.windows.net/aeronautical-information-publication/Enroute%20(15_APR_2026).pdf,439
AVAVA,AVAVA,SIGNIFICANT_POINT,SOUTH AFRICA / FAJA-FACA FIR,-26.9156444444,29.4528083333,SACAA,2026-04-15,https://caasanwebsitestorage.blob.core.windows.net/aeronautical-information-publication/Enroute%20(15_APR_2026).pdf,439
AVEPA,AVEPA,SIGNIFICANT_POINT,SOUTH AFRICA / FAJA-FACA FIR,-32.6984830556,26.3684697222,SACAA,2026-04-15,https://caasanwebsitestorage.blob.core.windows.net/aeronautical-information-publication/Enroute%20(15_APR_2026).pdf,439
AVEXA,AVEXA,SIGNIFICANT_POINT,SOUTH AFRICA / FAJA-FACA FIR,-32.6434083333,23.3791888889,SACAA,2026-04-15,https://caasanwebsitestorage.blob.core.windows.net/aeronautical-information-publication/Enroute%20(15_APR_2026).pdf,439
AVILO,AVILO,SIGNIFICANT_POINT,SOUTH AFRICA / FAJA-FACA FIR,-26.9818583333,28.7210055556,SACAA,2026-04-15,https://caasanwebsitestorage.blob.core.windows.net/aeronautical-information-publication/Enroute%20(15_APR_2026).pdf,439
AVOBI,AVOBI,SIGNIFICANT_POINT,SOUTH AFRICA / FAJA-FACA FIR,-34.7853972222,20.2960083333,SACAA,2026-04-15,https://caasanwebsitestorage.blob.core.windows.net/aeronautical-information-publication/Enroute%20(15_APR_2026).pdf,439
AVUBU,AVUBU,SIGNIFICANT_POINT,SOUTH AFRICA / FAJA-FACA FIR,-28.3785527778,26.5383333333,SACAA,2026-04-15,https://caasanwebsitestorage.blob.core.windows.net/aeronautical-information-publication/Enroute%20(15_APR_2026).pdf,439
AVUSA,AVUSA,SIGNIFICANT_POINT,SOUTH AFRICA / FAJA-FACA FIR,-27.4986388889,22.2250250000,SACAA,2026-04-15,https://caasanwebsitestorage.blob.core.windows.net/aeronautical-information-publication/Enroute%20(15_APR_2026).pdf,440
AVUSO,AVUSO,SIGNIFICANT_POINT,SOUTH AFRICA / FAJA-FACA FIR,-29.9505611111,30.5547472222,SACAA,2026-04-15,https://caasanwebsitestorage.blob.core.windows.net/aeronautical-information-publication/Enroute%20(15_APR_2026).pdf,440
AXEMU,AXEMU,SIGNIFICANT_POINT,SOUTH AFRICA / FAJA-FACA FIR,-34.2032250000,21.4001138889,SACAA,2026-04-15,https://caasanwebsitestorage.blob.core.windows.net/aeronautical-information-publication/Enroute%20(15_APR_2026).pdf,440
AXOPA,AXOPA,SIGNIFICANT_POINT,SOUTH AFRICA / FAJA-FACA FIR,-33.2950722222,19.9759472222,SACAA,2026-04-15,https://caasanwebsitestorage.blob.core.windows.net/aeronautical-information-publication/Enroute%20(15_APR_2026).pdf,440
AXOXI,AXOXI,SIGNIFICANT_POINT,SOUTH AFRICA / FAJA-FACA FIR,-32.2043333333,27.9012000000,SACAA,2026-04-15,https://caasanwebsitestorage.blob.core.windows.net/aeronautical-information-publication/Enroute%20(15_APR_2026).pdf,440
BEBAS,BEBAS,SIGNIFICANT_POINT,SOUTH AFRICA / FAJA-FACA FIR,-27.8218000000,29.6151916667,SACAA,2026-04-15,https://caasanwebsitestorage.blob.core.windows.net/aeronautical-information-publication/Enroute%20(15_APR_2026).pdf,440
BIGSA,BIGSA,SIGNIFICANT_POINT,SOUTH AFRICA / FAJA-FACA FIR,-40.2166666667,57.0000000000,SACAA,2026-04-15,https://caasanwebsitestorage.blob.core.windows.net/aeronautical-information-publication/Enroute%20(15_APR_2026).pdf,440
BOLUM,BOLUM,SIGNIFICANT_POINT,SOUTH AFRICA / FAJA-FACA FIR,-19.3333333333,-5.0000000000,SACAA,2026-04-15,https://caasanwebsitestorage.blob.core.windows.net/aeronautical-information-publication/Enroute%20(15_APR_2026).pdf,440
BUXIR,BUXIR,SIGNIFICANT_POINT,SOUTH AFRICA / FAJA-FACA FIR,-32.0000000000,15.0000000000,SACAA,2026-04-15,https://caasanwebsitestorage.blob.core.windows.net/aeronautical-information-publication/Enroute%20(15_APR_2026).pdf,440
DABUR,DABUR,SIGNIFICANT_POINT,SOUTH AFRICA / FAJA-FACA FIR,-26.3333333333,5.0000000000,SACAA,2026-04-15,https://caasanwebsitestorage.blob.core.windows.net/aeronautical-information-publication/Enroute%20(15_APR_2026).pdf,440
DODOS,DODOS,SIGNIFICANT_POINT,SOUTH AFRICA / FAJA-FACA FIR,-25.5089361111,30.5771166667,SACAA,2026-04-15,https://caasanwebsitestorage.blob.core.windows.net/aeronautical-information-publication/Enroute%20(15_APR_2026).pdf,440
DUDMA,DUDMA,SIGNIFICANT_POINT,SOUTH AFRICA / FAJA-FACA FIR,-29.3553833333,30.1752666667,SACAA,2026-04-15,https://caasanwebsitestorage.blob.core.windows.net/aeronautical-information-publication/Enroute%20(15_APR_2026).pdf,440
DUDMO,DUDMO,SIGNIFICANT_POINT,SOUTH AFRICA / FAJA-FACA FIR,-28.4907833333,17.9310611111,SACAA,2026-04-15,https://caasanwebsitestorage.blob.core.windows.net/aeronautical-information-publication/Enroute%20(15_APR_2026).pdf,440
DUDVU,DUDVU,SIGNIFICANT_POINT,SOUTH AFRICA / FAJA-FACA FIR,-31.3978527778,27.8601388889,SACAA,2026-04-15,https://caasanwebsitestorage.blob.core.windows.net/aeronautical-information-publication/Enroute%20(15_APR_2026).pdf,440
DUGLU,DUGLU,SIGNIFICANT_POINT,SOUTH AFRICA / FAJA-FACA FIR,-33.7995694444,18.3644722222,SACAA,2026-04-15,https://caasanwebsitestorage.blob.core.windows.net/aeronautical-information-publication/Enroute%20(15_APR_2026).pdf,440
DUGPA,DUGPA,SIGNIFICANT_POINT,SOUTH AFRICA / FAJA-FACA FIR,-26.2247333333,22.4263416667,SACAA,2026-04-15,https://caasanwebsitestorage.blob.core.windows.net/aeronautical-information-publication/Enroute%20(15_APR_2026).pdf,440
DUKMU,DUKMU,SIGNIFICANT_POINT,SOUTH AFRICA / FAJA-FACA FIR,-30.3801611111,30.7501194444,SACAA,2026-04-15,https://caasanwebsitestorage.blob.core.windows.net/aeronautical-information-publication/Enroute%20(15_APR_2026).pdf,440
DUKRA,DUKRA,SIGNIFICANT_POINT,SOUTH AFRICA / FAJA-FACA FIR,-26.3401194444,30.7865472222,SACAA,2026-04-15,https://caasanwebsitestorage.blob.core.windows.net/aeronautical-information-publication/Enroute%20(15_APR_2026).pdf,440
DULPU,DULPU,SIGNIFICANT_POINT,SOUTH AFRICA / FAJA-FACA FIR,-25.9565861111,31.2236833333,SACAA,2026-04-15,https://caasanwebsitestorage.blob.core.windows.net/aeronautical-information-publication/Enroute%20(15_APR_2026).pdf,440
DULRI,DULRI,SIGNIFICANT_POINT,SOUTH AFRICA / FAJA-FACA FIR,-31.0830611111,28.9441888889,SACAA,2026-04-15,https://caasanwebsitestorage.blob.core.windows.net/aeronautical-information-publication/Enroute%20(15_APR_2026).pdf,440
DUMGA,DUMGA,SIGNIFICANT_POINT,SOUTH AFRICA / FAJA-FACA FIR,-25.3346140556,31.0355089722,SACAA,2026-04-15,https://caasanwebsitestorage.blob.core.windows.net/aeronautical-information-publication/Enroute%20(15_APR_2026).pdf,440
DUMGO,DUMGO,SIGNIFICANT_POINT,SOUTH AFRICA / FAJA-FACA FIR,-24.0861972222,29.0307333333,SACAA,2026-04-15,https://caasanwebsitestorage.blob.core.windows.net/aeronautical-information-publication/Enroute%20(15_APR_2026).pdf,440
DUNSA,DUNSA,SIGNIFICANT_POINT,SOUTH AFRICA / FAJA-FACA FIR,-30.2351972222,30.4874194444,SACAA,2026-04-15,https://caasanwebsitestorage.blob.core.windows.net/aeronautical-information-publication/Enroute%20(15_APR_2026).pdf,440
DUSKO,DUSKO,SIGNIFICANT_POINT,SOUTH AFRICA / FAJA-FACA FIR,-25.1746500000,31.4004722222,SACAA,2026-04-15,https://caasanwebsitestorage.blob.core.windows.net/aeronautical-information-publication/Enroute%20(15_APR_2026).pdf,440
DUSLI,DUSLI,SIGNIFICANT_POINT,SOUTH AFRICA / FAJA-FACA FIR,-24.9734083333,26.6504611111,SACAA,2026-04-15,https://caasanwebsitestorage.blob.core.windows.net/aeronautical-information-publication/Enroute%20(15_APR_2026).pdf,440
DUTGI,DUTGI,SIGNIFICANT_POINT,SOUTH AFRICA / FAJA-FACA FIR,-25.2954916667,32.0236833333,SACAA,2026-04-15,https://caasanwebsitestorage.blob.core.windows.net/aeronautical-information-publication/Enroute%20(15_APR_2026).pdf,440
DUVPI,DUVPI,SIGNIFICANT_POINT,SOUTH AFRICA / FAJA-FACA FIR,-27.9866805556,28.5215111111,SACAA,2026-04-15,https://caasanwebsitestorage.blob.core.windows.net/aeronautical-information-publication/Enroute%20(15_APR_2026).pdf,440
EGMEN,EGMEN,SIGNIFICANT_POINT,SOUTH AFRICA / FAJA-FACA FIR,-25.6460388889,28.9682027778,SACAA,2026-04-15,https://caasanwebsitestorage.blob.core.windows.net/aeronautical-information-publication/Enroute%20(15_APR_2026).pdf,440
EGNOM,EGNOM,SIGNIFICANT_POINT,SOUTH AFRICA / FAJA-FACA FIR,-30.9009361111,22.4431250000,SACAA,2026-04-15,https://caasanwebsitestorage.blob.core.windows.net/aeronautical-information-publication/Enroute%20(15_APR_2026).pdf,440
EGPAX,EGPAX,SIGNIFICANT_POINT,SOUTH AFRICA / FAJA-FACA FIR,-34.4598555556,20.0251111111,SACAA,2026-04-15,https://caasanwebsitestorage.blob.core.windows.net/aeronautical-information-publication/Enroute%20(15_APR_2026).pdf,440
EGPOP,EGPOP,SIGNIFICANT_POINT,SOUTH AFRICA / FAJA-FACA FIR,-26.2816583333,27.5109555556,SACAA,2026-04-15,https://caasanwebsitestorage.blob.core.windows.net/aeronautical-information-publication/Enroute%20(15_APR_2026).pdf,440
EGRAL,EGRAL,SIGNIFICANT_POINT,SOUTH AFRICA / FAJA-FACA FIR,-33.1106611111,28.0439166667,SACAA,2026-04-15,https://caasanwebsitestorage.blob.core.windows.net/aeronautical-information-publication/Enroute%20(15_APR_2026).pdf,440
EGRAP,EGRAP,SIGNIFICANT_POINT,SOUTH AFRICA / FAJA-FACA FIR,-27.8437527778,14.0269361111,SACAA,2026-04-15,https://caasanwebsitestorage.blob.core.windows.net/aeronautical-information-publication/Enroute%20(15_APR_2026).pdf,440
EGRUP,EGRUP,SIGNIFICANT_POINT,SOUTH AFRICA / FAJA-FACA FIR,-31.1683194444,23.2610500000,SACAA,2026-04-15,https://caasanwebsitestorage.blob.core.windows.net/aeronautical-information-publication/Enroute%20(15_APR_2026).pdf,440
EGSAN,EGSAN,SIGNIFICANT_POINT,SOUTH AFRICA / FAJA-FACA FIR,-28.0029777778,27.1432666667,SACAA,2026-04-15,https://caasanwebsitestorage.blob.core.windows.net/aeronautical-information-publication/Enroute%20(15_APR_2026).pdf,440
EGSOX,EGSOX,SIGNIFICANT_POINT,SOUTH AFRICA / FAJA-FACA FIR,-28.3922055556,34.6920500000,SACAA,2026-04-15,https://caasanwebsitestorage.blob.core.windows.net/aeronautical-information-publication/Enroute%20(15_APR_2026).pdf,440
EGTAP,EGTAP,SIGNIFICANT_POINT,SOUTH AFRICA / FAJA-FACA FIR,-30.7712861111,26.8176138889,SACAA,2026-04-15,https://caasanwebsitestorage.blob.core.windows.net/aeronautical-information-publication/Enroute%20(15_APR_2026).pdf,440
EGTAR,EGTAR,SIGNIFICANT_POINT,SOUTH AFRICA / FAJA-FACA FIR,-28.1272694444,18.3514111111,SACAA,2026-04-15,https://caasanwebsitestorage.blob.core.windows.net/aeronautical-information-publication/Enroute%20(15_APR_2026).pdf,440
EGTIL,EGTIL,SIGNIFICANT_POINT,SOUTH AFRICA / FAJA-FACA FIR,-31.0398027778,22.8654111111,SACAA,2026-04-15,https://caasanwebsitestorage.blob.core.windows.net/aeronautical-information-publication/Enroute%20(15_APR_2026).pdf,440
EGTIM,EGTIM,SIGNIFICANT_POINT,SOUTH AFRICA / FAJA-FACA FIR,-33.1604750000,25.6905444444,SACAA,2026-04-15,https://caasanwebsitestorage.blob.core.windows.net/aeronautical-information-publication/Enroute%20(15_APR_2026).pdf,440
EGVOL,EGVOL,SIGNIFICANT_POINT,SOUTH AFRICA / FAJA-FACA FIR,-34.0469444444,31.0294444444,SACAA,2026-04-15,https://caasanwebsitestorage.blob.core.windows.net/aeronautical-information-publication/Enroute%20(15_APR_2026).pdf,440
EKBAP,EKBAP,SIGNIFICANT_POINT,SOUTH AFRICA / FAJA-FACA FIR,-23.5169305556,28.1160944444,SACAA,2026-04-15,https://caasanwebsitestorage.blob.core.windows.net/aeronautical-information-publication/Enroute%20(15_APR_2026).pdf,441
EKBED,EKBED,SIGNIFICANT_POINT,SOUTH AFRICA / FAJA-FACA FIR,-39.2166666667,0.0000000000,SACAA,2026-04-15,https://caasanwebsitestorage.blob.core.windows.net/aeronautical-information-publication/Enroute%20(15_APR_2026).pdf,441
EKBEX,EKBEX,SIGNIFICANT_POINT,SOUTH AFRICA / FAJA-FACA FIR,-28.0108611111,25.7899888889,SACAA,2026-04-15,https://caasanwebsitestorage.blob.core.windows.net/aeronautical-information-publication/Enroute%20(15_APR_2026).pdf,441
EKBEV,EKBEV,SIGNIFICANT_POINT,SOUTH AFRICA / FAJA-FACA FIR,-34.1999333333,18.5327972222,SACAA,2026-04-15,https://caasanwebsitestorage.blob.core.windows.net/aeronautical-information-publication/Enroute%20(15_APR_2026).pdf,441
EKBON,EKBON,SIGNIFICANT_POINT,SOUTH AFRICA / FAJA-FACA FIR,-28.3097055556,17.6184166667,SACAA,2026-04-15,https://caasanwebsitestorage.blob.core.windows.net/aeronautical-information-publication/Enroute%20(15_APR_2026).pdf,441
ENULO,ENULO,SIGNIFICANT_POINT,SOUTH AFRICA / FAJA-FACA FIR,-29.8747850000,30.8894720000,SACAA,2026-04-15,https://caasanwebsitestorage.blob.core.windows.net/aeronautical-information-publication/Enroute%20(15_APR_2026).pdf,441
EKBOX,EKBOX,SIGNIFICANT_POINT,SOUTH AFRICA / FAJA-FACA FIR,-34.9128027778,25.1282055556,SACAA,2026-04-15,https://caasanwebsitestorage.blob.core.windows.net/aeronautical-information-publication/Enroute%20(15_APR_2026).pdf,441
EPMAK,EPMAK,SIGNIFICANT_POINT,SOUTH AFRICA / FAJA-FACA FIR,-36.9701722222,24.0921777778,SACAA,2026-04-15,https://caasanwebsitestorage.blob.core.windows.net/aeronautical-information-publication/Enroute%20(15_APR_2026).pdf,441
EPNET,EPNET,SIGNIFICANT_POINT,SOUTH AFRICA / FAJA-FACA FIR,-37.0094444444,23.9844444444,SACAA,2026-04-15,https://caasanwebsitestorage.blob.core.windows.net/aeronautical-information-publication/Enroute%20(15_APR_2026).pdf,441
EPRET,EPRET,SIGNIFICANT_POINT,SOUTH AFRICA / FAJA-FACA FIR,-26.8588500000,32.4296444444,SACAA,2026-04-15,https://caasanwebsitestorage.blob.core.windows.net/aeronautical-information-publication/Enroute%20(15_APR_2026).pdf,441
EPRUP,EPRUP,SIGNIFICANT_POINT,SOUTH AFRICA / FAJA-FACA FIR,-23.9264877778,29.2513686389,SACAA,2026-04-15,https://caasanwebsitestorage.blob.core.windows.net/aeronautical-information-publication/Enroute%20(15_APR_2026).pdf,441
EPSAK,EPSAK,SIGNIFICANT_POINT,SOUTH AFRICA / FAJA-FACA FIR,-27.1986055556,29.1615333333,SACAA,2026-04-15,https://caasanwebsitestorage.blob.core.windows.net/aeronautical-information-publication/Enroute%20(15_APR_2026).pdf,441
EPSEK,EPSEK,SIGNIFICANT_POINT,SOUTH AFRICA / FAJA-FACA FIR,-23.4541666667,31.5625000000,SACAA,2026-04-15,https://caasanwebsitestorage.blob.core.windows.net/aeronautical-information-publication/Enroute%20(15_APR_2026).pdf,441
EPTOT,EPTOT,SIGNIFICANT_POINT,SOUTH AFRICA / FAJA-FACA FIR,-28.6341916667,27.3953027778,SACAA,2026-04-15,https://caasanwebsitestorage.blob.core.windows.net/aeronautical-information-publication/Enroute%20(15_APR_2026).pdf,441
EPVUV,EPVUV,SIGNIFICANT_POINT,SOUTH AFRICA / FAJA-FACA FIR,-33.8175861111,26.2223388889,SACAA,2026-04-15,https://caasanwebsitestorage.blob.core.windows.net/aeronautical-information-publication/Enroute%20(15_APR_2026).pdf,441
ERDAS,ERDAS,SIGNIFICANT_POINT,SOUTH AFRICA / FAJA-FACA FIR,-33.4139166667,19.1869027778,SACAA,2026-04-15,https://caasanwebsitestorage.blob.core.windows.net/aeronautical-information-publication/Enroute%20(15_APR_2026).pdf,441
ESPOG,ESPOG,SIGNIFICANT_POINT,SOUTH AFRICA / FAJA-FACA FIR,-33.1846527778,26.8462944444,SACAA,2026-04-15,https://caasanwebsitestorage.blob.core.windows.net/aeronautical-information-publication/Enroute%20(15_APR_2026).pdf,441
ESPUV,ESPUV,SIGNIFICANT_POINT,SOUTH AFRICA / FAJA-FACA FIR,-25.8292666667,24.7155000000,SACAA,2026-04-15,https://caasanwebsitestorage.blob.core.windows.net/aeronautical-information-publication/Enroute%20(15_APR_2026).pdf,441
ESRAS,ESRAS,SIGNIFICANT_POINT,SOUTH AFRICA / FAJA-FACA FIR,-25.8961111111,31.1538944444,SACAA,2026-04-15,https://caasanwebsitestorage.blob.core.windows.net/aeronautical-information-publication/Enroute%20(15_APR_2026).pdf,441
ESRET,ESRET,SIGNIFICANT_POINT,SOUTH AFRICA / FAJA-FACA FIR,-29.2776833333,33.1348500000,SACAA,2026-04-15,https://caasanwebsitestorage.blob.core.windows.net/aeronautical-information-publication/Enroute%20(15_APR_2026).pdf,441
ESRUK,ESRUK,SIGNIFICANT_POINT,SOUTH AFRICA / FAJA-FACA FIR,-33.9695777778,19.8074555556,SACAA,2026-04-15,https://caasanwebsitestorage.blob.core.windows.net/aeronautical-information-publication/Enroute%20(15_APR_2026).pdf,441
ESRUM,ESRUM,SIGNIFICANT_POINT,SOUTH AFRICA / FAJA-FACA FIR,-25.9110333333,31.7251055556,SACAA,2026-04-15,https://caasanwebsitestorage.blob.core.windows.net/aeronautical-information-publication/Enroute%20(15_APR_2026).pdf,441
ESTAM,ESTAM,SIGNIFICANT_POINT,SOUTH AFRICA / FAJA-FACA FIR,-28.1469527778,14.4209527778,SACAA,2026-04-15,https://caasanwebsitestorage.blob.core.windows.net/aeronautical-information-publication/Enroute%20(15_APR_2026).pdf,441
ESTEX,ESTEX,SIGNIFICANT_POINT,SOUTH AFRICA / FAJA-FACA FIR,-29.3989611111,30.4180027778,SACAA,2026-04-15,https://caasanwebsitestorage.blob.core.windows.net/aeronautical-information-publication/Enroute%20(15_APR_2026).pdf,441
ESTUB,ESTUB,SIGNIFICANT_POINT,SOUTH AFRICA / FAJA-FACA FIR,-31.5711505556,28.3814430556,SACAA,2026-04-15,https://caasanwebsitestorage.blob.core.windows.net/aeronautical-information-publication/Enroute%20(15_APR_2026).pdf,441
ESVAX,ESVAX,SIGNIFICANT_POINT,SOUTH AFRICA / FAJA-FACA FIR,-32.4340083333,24.0018638889,SACAA,2026-04-15,https://caasanwebsitestorage.blob.core.windows.net/aeronautical-information-publication/Enroute%20(15_APR_2026).pdf,441
ESVEV,ESVEV,SIGNIFICANT_POINT,SOUTH AFRICA / FAJA-FACA FIR,-25.9869500000,30.6053277778,SACAA,2026-04-15,https://caasanwebsitestorage.blob.core.windows.net/aeronautical-information-publication/Enroute%20(15_APR_2026).pdf,441
ESVIR,ESVIR,SIGNIFICANT_POINT,SOUTH AFRICA / FAJA-FACA FIR,-28.0884833333,30.8288194444,SACAA,2026-04-15,https://caasanwebsitestorage.blob.core.windows.net/aeronautical-information-publication/Enroute%20(15_APR_2026).pdf,441
ETBIN,ETBIN,SIGNIFICANT_POINT,SOUTH AFRICA / FAJA-FACA FIR,-32.2086777778,27.6958916667,SACAA,2026-04-15,https://caasanwebsitestorage.blob.core.windows.net/aeronautical-information-publication/Enroute%20(15_APR_2026).pdf,441
ETBOR,ETBOR,SIGNIFICANT_POINT,SOUTH AFRICA / FAJA-FACA FIR,-37.0013888889,27.7116666667,SACAA,2026-04-15,https://caasanwebsitestorage.blob.core.windows.net/aeronautical-information-publication/Enroute%20(15_APR_2026).pdf,441
ETBUL,ETBUL,SIGNIFICANT_POINT,SOUTH AFRICA / FAJA-FACA FIR,-33.9990250000,21.3733722222,SACAA,2026-04-15,https://caasanwebsitestorage.blob.core.windows.net/aeronautical-information-publication/Enroute%20(15_APR_2026).pdf,441
ETBUX,ETBUX,SIGNIFICANT_POINT,SOUTH AFRICA / FAJA-FACA FIR,-25.9066111111,26.2661333333,SACAA,2026-04-15,https://caasanwebsitestorage.blob.core.windows.net/aeronautical-information-publication/Enroute%20(15_APR_2026).pdf,441
ETGAX,ETGAX,SIGNIFICANT_POINT,SOUTH AFRICA / FAJA-FACA FIR,-33.7566805556,22.3722333333,SACAA,2026-04-15,https://caasanwebsitestorage.blob.core.windows.net/aeronautical-information-publication/Enroute%20(15_APR_2026).pdf,441
ETGEB,ETGEB,SIGNIFICANT_POINT,SOUTH AFRICA / FAJA-FACA FIR,-32.5040472222,28.5842916667,SACAA,2026-04-15,https://caasanwebsitestorage.blob.core.windows.net/aeronautical-information-publication/Enroute%20(15_APR_2026).pdf,441
ETGIS,ETGIS,SIGNIFICANT_POINT,SOUTH AFRICA / FAJA-FACA FIR,-31.0866361111,25.1491527778,SACAA,2026-04-15,https://caasanwebsitestorage.blob.core.windows.net/aeronautical-information-publication/Enroute%20(15_APR_2026).pdf,441
ETKAL,ETKAL,SIGNIFICANT_POINT,SOUTH AFRICA / FAJA-FACA FIR,-32.9134444444,22.5600083333,SACAA,2026-04-15,https://caasanwebsitestorage.blob.core.windows.net/aeronautical-information-publication/Enroute%20(15_APR_2026).pdf,441
ETKON,ETKON,SIGNIFICANT_POINT,SOUTH AFRICA / FAJA-FACA FIR,-33.4188888889,26.9393111111,SACAA,2026-04-15,https://caasanwebsitestorage.blob.core.windows.net/aeronautical-information-publication/Enroute%20(15_APR_2026).pdf,441
ETLUR,ETLUR,SIGNIFICANT_POINT,SOUTH AFRICA / FAJA-FACA FIR,-30.9070638889,28.2151916667,SACAA,2026-04-15,https://caasanwebsitestorage.blob.core.windows.net/aeronautical-information-publication/Enroute%20(15_APR_2026).pdf,441
ETMAL,ETMAL,SIGNIFICANT_POINT,SOUTH AFRICA / FAJA-FACA FIR,-27.5728027778,30.3834750000,SACAA,2026-04-15,https://caasanwebsitestorage.blob.core.windows.net/aeronautical-information-publication/Enroute%20(15_APR_2026).pdf,441
ETMIT,ETMIT,SIGNIFICANT_POINT,SOUTH AFRICA / FAJA-FACA FIR,-23.2134694444,27.6285250000,SACAA,2026-04-15,https://caasanwebsitestorage.blob.core.windows.net/aeronautical-information-publication/Enroute%20(15_APR_2026).pdf,442
ETMOS,ETMOS,SIGNIFICANT_POINT,SOUTH AFRICA / FAJA-FACA FIR,-28.3733333333,35.9383333333,SACAA,2026-04-15,https://caasanwebsitestorage.blob.core.windows.net/aeronautical-information-publication/Enroute%20(15_APR_2026).pdf,442
ETMUP,ETMUP,SIGNIFICANT_POINT,SOUTH AFRICA / FAJA-FACA FIR,-29.0466222222,30.7894305556,SACAA,2026-04-15,https://caasanwebsitestorage.blob.core.windows.net/aeronautical-information-publication/Enroute%20(15_APR_2026).pdf,442
ETMUS,ETMUS,SIGNIFICANT_POINT,SOUTH AFRICA / FAJA-FACA FIR,-28.3332750000,16.4516194444,SACAA,2026-04-15,https://caasanwebsitestorage.blob.core.windows.net/aeronautical-information-publication/Enroute%20(15_APR_2026).pdf,442
ETOBO,ETOBO,SIGNIFICANT_POINT,SOUTH AFRICA / FAJA-FACA FIR,-23.6500000000,-10.0000000000,SACAA,2026-04-15,https://caasanwebsitestorage.blob.core.windows.net/aeronautical-information-publication/Enroute%20(15_APR_2026).pdf,442
ETOSA,ETOSA,SIGNIFICANT_POINT,SOUTH AFRICA / FAJA-FACA FIR,-24.7140000000,26.0536055556,SACAA,2026-04-15,https://caasanwebsitestorage.blob.core.windows.net/aeronautical-information-publication/Enroute%20(15_APR_2026).pdf,442
ETOVU,ETOVU,SIGNIFICANT_POINT,SOUTH AFRICA / FAJA-FACA FIR,-32.3561916667,28.3953694444,SACAA,2026-04-15,https://caasanwebsitestorage.blob.core.windows.net/aeronautical-information-publication/Enroute%20(15_APR_2026).pdf,442
ETULA,ETULA,SIGNIFICANT_POINT,SOUTH AFRICA / FAJA-FACA FIR,-34.3500000000,10.0000000000,SACAA,2026-04-15,https://caasanwebsitestorage.blob.core.windows.net/aeronautical-information-publication/Enroute%20(15_APR_2026).pdf,442
ETUPO,ETUPO,SIGNIFICANT_POINT,SOUTH AFRICA / FAJA-FACA FIR,-28.1855444444,18.1193888889,SACAA,2026-04-15,https://caasanwebsitestorage.blob.core.windows.net/aeronautical-information-publication/Enroute%20(15_APR_2026).pdf,442
EVARI,EVARI,SIGNIFICANT_POINT,SOUTH AFRICA / FAJA-FACA FIR,-27.6802527778,30.0542194444,SACAA,2026-04-15,https://caasanwebsitestorage.blob.core.windows.net/aeronautical-information-publication/Enroute%20(15_APR_2026).pdf,442
EVEMU,EVEMU,SIGNIFICANT_POINT,SOUTH AFRICA / FAJA-FACA FIR,-30.6846527778,27.2549777778,SACAA,2026-04-15,https://caasanwebsitestorage.blob.core.windows.net/aeronautical-information-publication/Enroute%20(15_APR_2026).pdf,442
EVESI,EVESI,SIGNIFICANT_POINT,SOUTH AFRICA / FAJA-FACA FIR,-28.5985277778,25.1868611111,SACAA,2026-04-15,https://caasanwebsitestorage.blob.core.windows.net/aeronautical-information-publication/Enroute%20(15_APR_2026).pdf,442
EVIDO,EVIDO,SIGNIFICANT_POINT,SOUTH AFRICA / FAJA-FACA FIR,-29.6457833333,32.0802500000,SACAA,2026-04-15,https://caasanwebsitestorage.blob.core.windows.net/aeronautical-information-publication/Enroute%20(15_APR_2026).pdf,442
EVIPI,EVIPI,SIGNIFICANT_POINT,SOUTH AFRICA / FAJA-FACA FIR,-24.8667222222,27.8484305556,SACAA,2026-04-15,https://caasanwebsitestorage.blob.core.windows.net/aeronautical-information-publication/Enroute%20(15_APR_2026).pdf,442
EVOPO,EVOPO,SIGNIFICANT_POINT,SOUTH AFRICA / FAJA-FACA FIR,-25.2067166667,27.1940000000,SACAA,2026-04-15,https://caasanwebsitestorage.blob.core.windows.net/aeronautical-information-publication/Enroute%20(15_APR_2026).pdf,442
EVUKI,EVUKI,SIGNIFICANT_POINT,SOUTH AFRICA / FAJA-FACA FIR,-33.1668722222,18.3505138889,SACAA,2026-04-15,https://caasanwebsitestorage.blob.core.windows.net/aeronautical-information-publication/Enroute%20(15_APR_2026).pdf,442
EVURU,EVURU,SIGNIFICANT_POINT,SOUTH AFRICA / FAJA-FACA FIR,-30.7522429444,30.5204013333,SACAA,2026-04-15,https://caasanwebsitestorage.blob.core.windows.net/aeronautical-information-publication/Enroute%20(15_APR_2026).pdf,442
EVUVA,EVUVA,SIGNIFICANT_POINT,SOUTH AFRICA / FAJA-FACA FIR,-30.7599666667,28.5950472222,SACAA,2026-04-15,https://caasanwebsitestorage.blob.core.windows.net/aeronautical-information-publication/Enroute%20(15_APR_2026).pdf,442
EXABU,EXABU,SIGNIFICANT_POINT,SOUTH AFRICA / FAJA-FACA FIR,-31.6322555556,27.8128861111,SACAA,2026-04-15,https://caasanwebsitestorage.blob.core.windows.net/aeronautical-information-publication/Enroute%20(15_APR_2026).pdf,442
EXANO,EXANO,SIGNIFICANT_POINT,SOUTH AFRICA / FAJA-FACA FIR,-26.6301416667,26.8430666667,SACAA,2026-04-15,https://caasanwebsitestorage.blob.core.windows.net/aeronautical-information-publication/Enroute%20(15_APR_2026).pdf,442
EXATA,EXATA,SIGNIFICANT_POINT,SOUTH AFRICA / FAJA-FACA FIR,-29.7661111111,30.0208333333,SACAA,2026-04-15,https://caasanwebsitestorage.blob.core.windows.net/aeronautical-information-publication/Enroute%20(15_APR_2026).pdf,442
EXELO,EXELO,SIGNIFICANT_POINT,SOUTH AFRICA / FAJA-FACA FIR,-33.3251083333,22.4073277778,SACAA,2026-04-15,https://caasanwebsitestorage.blob.core.windows.net/aeronautical-information-publication/Enroute%20(15_APR_2026).pdf,442
EXOBI,EXOBI,SIGNIFICANT_POINT,SOUTH AFRICA / FAJA-FACA FIR,-26.0478527778,29.1475888889,SACAA,2026-04-15,https://caasanwebsitestorage.blob.core.windows.net/aeronautical-information-publication/Enroute%20(15_APR_2026).pdf,442
EXOKU,EXOKU,SIGNIFICANT_POINT,SOUTH AFRICA / FAJA-FACA FIR,-26.6695555556,26.5778194444,SACAA,2026-04-15,https://caasanwebsitestorage.blob.core.windows.net/aeronautical-information-publication/Enroute%20(15_APR_2026).pdf,442
GABGO,GABGO,SIGNIFICANT_POINT,SOUTH AFRICA / FAJA-FACA FIR,-33.6675555556,23.2898361111,SACAA,2026-04-15,https://caasanwebsitestorage.blob.core.windows.net/aeronautical-information-publication/Enroute%20(15_APR_2026).pdf,442
GABNA,GABNA,SIGNIFICANT_POINT,SOUTH AFRICA / FAJA-FACA FIR,-24.1666666667,28.5666666667,SACAA,2026-04-15,https://caasanwebsitestorage.blob.core.windows.net/aeronautical-information-publication/Enroute%20(15_APR_2026).pdf,442
GADNU,GADNU,SIGNIFICANT_POINT,SOUTH AFRICA / FAJA-FACA FIR,-33.4809916667,21.1086638889,SACAA,2026-04-15,https://caasanwebsitestorage.blob.core.windows.net/aeronautical-information-publication/Enroute%20(15_APR_2026).pdf,442
GADSO,GADSO,SIGNIFICANT_POINT,SOUTH AFRICA / FAJA-FACA FIR,-28.6245222222,24.8782944444,SACAA,2026-04-15,https://caasanwebsitestorage.blob.core.windows.net/aeronautical-information-publication/Enroute%20(15_APR_2026).pdf,442
GAGNO,GAGNO,SIGNIFICANT_POINT,SOUTH AFRICA / FAJA-FACA FIR,-25.5525638889,31.6303222222,SACAA,2026-04-15,https://caasanwebsitestorage.blob.core.windows.net/aeronautical-information-publication/Enroute%20(15_APR_2026).pdf,442
GEDOL,GEDOL,SIGNIFICANT_POINT,SOUTH AFRICA / FAJA-FACA FIR,-29.8437472222,26.1678277778,SACAA,2026-04-15,https://caasanwebsitestorage.blob.core.windows.net/aeronautical-information-publication/Enroute%20(15_APR_2026).pdf,442
GENUV,GENUV,SIGNIFICANT_POINT,SOUTH AFRICA / FAJA-FACA FIR,-34.1230890833,23.5855006667,SACAA,2026-04-15,https://caasanwebsitestorage.blob.core.windows.net/aeronautical-information-publication/Enroute%20(15_APR_2026).pdf,442
GEPAB,GEPAB,SIGNIFICANT_POINT,SOUTH AFRICA / FAJA-FACA FIR,-37.0113888889,18.5116666667,SACAA,2026-04-15,https://caasanwebsitestorage.blob.core.windows.net/aeronautical-information-publication/Enroute%20(15_APR_2026).pdf,442
GEPES,GEPES,SIGNIFICANT_POINT,SOUTH AFRICA / FAJA-FACA FIR,-28.0102750000,25.2966194444,SACAA,2026-04-15,https://caasanwebsitestorage.blob.core.windows.net/aeronautical-information-publication/Enroute%20(15_APR_2026).pdf,442
GEPEV,GEPEV,SIGNIFICANT_POINT,SOUTH AFRICA / FAJA-FACA FIR,-35.0783333333,29.9866666667,SACAA,2026-04-15,https://caasanwebsitestorage.blob.core.windows.net/aeronautical-information-publication/Enroute%20(15_APR_2026).pdf,442
GERAM,GERAM,SIGNIFICANT_POINT,SOUTH AFRICA / FAJA-FACA FIR,-34.0500000000,0.0000000000,SACAA,2026-04-15,https://caasanwebsitestorage.blob.core.windows.net/aeronautical-information-publication/Enroute%20(15_APR_2026).pdf,442
GERAX,GERAX,SIGNIFICANT_POINT,SOUTH AFRICA / FAJA-FACA FIR,-27.3159666667,31.3863638889,SACAA,2026-04-15,https://caasanwebsitestorage.blob.core.windows.net/aeronautical-information-publication/Enroute%20(15_APR_2026).pdf,442
GEROX,GEROX,SIGNIFICANT_POINT,SOUTH AFRICA / FAJA-FACA FIR,-27.3802805556,28.8286416667,SACAA,2026-04-15,https://caasanwebsitestorage.blob.core.windows.net/aeronautical-information-publication/Enroute%20(15_APR_2026).pdf,442
GERUT,GERUT,SIGNIFICANT_POINT,SOUTH AFRICA / FAJA-FACA FIR,-32.9443166667,23.5557444444,SACAA,2026-04-15,https://caasanwebsitestorage.blob.core.windows.net/aeronautical-information-publication/Enroute%20(15_APR_2026).pdf,442
GESIL,GESIL,SIGNIFICANT_POINT,SOUTH AFRICA / FAJA-FACA FIR,-22.3166666667,31.0000000000,SACAA,2026-04-15,https://caasanwebsitestorage.blob.core.windows.net/aeronautical-information-publication/Enroute%20(15_APR_2026).pdf,442
GETEN,GETEN,SIGNIFICANT_POINT,SOUTH AFRICA / FAJA-FACA FIR,-34.0573277778,19.6032500000,SACAA,2026-04-15,https://caasanwebsitestorage.blob.core.windows.net/aeronautical-information-publication/Enroute%20(15_APR_2026).pdf,442
GETOK,GETOK,SIGNIFICANT_POINT,SOUTH AFRICA / FAJA-FACA FIR,-29.5129694444,30.1549527778,SACAA,2026-04-15,https://caasanwebsitestorage.blob.core.windows.net/aeronautical-information-publication/Enroute%20(15_APR_2026).pdf,442
GEVIN,GEVIN,SIGNIFICANT_POINT,SOUTH AFRICA / FAJA-FACA FIR,-27.6983194444,14.1689750000,SACAA,2026-04-15,https://caasanwebsitestorage.blob.core.windows.net/aeronautical-information-publication/Enroute%20(15_APR_2026).pdf,443
GEVIS,GEVIS,SIGNIFICANT_POINT,SOUTH AFRICA / FAJA-FACA FIR,-29.6937472222,33.9604333333,SACAA,2026-04-15,https://caasanwebsitestorage.blob.core.windows.net/aeronautical-information-publication/Enroute%20(15_APR_2026).pdf,443
GEXIP,GEXIP,SIGNIFICANT_POINT,SOUTH AFRICA / FAJA-FACA FIR,-32.2498805556,19.2494666667,SACAA,2026-04-15,https://caasanwebsitestorage.blob.core.windows.net/aeronautical-information-publication/Enroute%20(15_APR_2026).pdf,443
IBMAD,IBMAD,SIGNIFICANT_POINT,SOUTH AFRICA / FAJA-FACA FIR,-29.2750418889,26.4155128333,SACAA,2026-04-15,https://caasanwebsitestorage.blob.core.windows.net/aeronautical-information-publication/Enroute%20(15_APR_2026).pdf,443
IBMES,IBMES,SIGNIFICANT_POINT,SOUTH AFRICA / FAJA-FACA FIR,-27.3885594444,22.5574663889,SACAA,2026-04-15,https://caasanwebsitestorage.blob.core.windows.net/aeronautical-information-publication/Enroute%20(15_APR_2026).pdf,443
IBRIS,IBRIS,SIGNIFICANT_POINT,SOUTH AFRICA / FAJA-FACA FIR,-28.8666666667,25.9500000000,SACAA,2026-04-15,https://caasanwebsitestorage.blob.core.windows.net/aeronautical-information-publication/Enroute%20(15_APR_2026).pdf,443
IBRUN,IBRUN,SIGNIFICANT_POINT,SOUTH AFRICA / FAJA-FACA FIR,-28.8902083333,18.4833861111,SACAA,2026-04-15,https://caasanwebsitestorage.blob.core.windows.net/aeronautical-information-publication/Enroute%20(15_APR_2026).pdf,443
IBTEK,IBTEK,SIGNIFICANT_POINT,SOUTH AFRICA / FAJA-FACA FIR,-29.7177888889,25.2132000000,SACAA,2026-04-15,https://caasanwebsitestorage.blob.core.windows.net/aeronautical-information-publication/Enroute%20(15_APR_2026).pdf,443
IBVIT,IBVIT,SIGNIFICANT_POINT,SOUTH AFRICA / FAJA-FACA FIR,-28.4148944444,21.0001222222,SACAA,2026-04-15,https://caasanwebsitestorage.blob.core.windows.net/aeronautical-information-publication/Enroute%20(15_APR_2026).pdf,443
IMGEV,IMGEV,SIGNIFICANT_POINT,SOUTH AFRICA / FAJA-FACA FIR,-27.9859166667,28.2922500000,SACAA,2026-04-15,https://caasanwebsitestorage.blob.core.windows.net/aeronautical-information-publication/Enroute%20(15_APR_2026).pdf,443
IMKAM,IMKAM,SIGNIFICANT_POINT,SOUTH AFRICA / FAJA-FACA FIR,-31.2388888889,15.0086111111,SACAA,2026-04-15,https://caasanwebsitestorage.blob.core.windows.net/aeronautical-information-publication/Enroute%20(15_APR_2026).pdf,443
IMKID,IMKID,SIGNIFICANT_POINT,SOUTH AFRICA / FAJA-FACA FIR,-25.9620500000,31.1170027778,SACAA,2026-04-15,https://caasanwebsitestorage.blob.core.windows.net/aeronautical-information-publication/Enroute%20(15_APR_2026).pdf,443
IMKUP,IMKUP,SIGNIFICANT_POINT,SOUTH AFRICA / FAJA-FACA FIR,-24.8210277778,28.2390694444,SACAA,2026-04-15,https://caasanwebsitestorage.blob.core.windows.net/aeronautical-information-publication/Enroute%20(15_APR_2026).pdf,443
IMLID,IMLID,SIGNIFICANT_POINT,SOUTH AFRICA / FAJA-FACA FIR,-30.5439944444,30.0249138889,SACAA,2026-04-15,https://caasanwebsitestorage.blob.core.windows.net/aeronautical-information-publication/Enroute%20(15_APR_2026).pdf,443
IMLUT,IMLUT,SIGNIFICANT_POINT,SOUTH AFRICA / FAJA-FACA FIR,-30.5099722222,15.6840944444,SACAA,2026-04-15,https://caasanwebsitestorage.blob.core.windows.net/aeronautical-information-publication/Enroute%20(15_APR_2026).pdf,443
IMPOD,IMPOD,SIGNIFICANT_POINT,SOUTH AFRICA / FAJA-FACA FIR,-23.6120027778,28.2688472222,SACAA,2026-04-15,https://caasanwebsitestorage.blob.core.windows.net/aeronautical-information-publication/Enroute%20(15_APR_2026).pdf,443
IMPOK,IMPOK,SIGNIFICANT_POINT,SOUTH AFRICA / FAJA-FACA FIR,-27.5000000000,14.0583333333,SACAA,2026-04-15,https://caasanwebsitestorage.blob.core.windows.net/aeronautical-information-publication/Enroute%20(15_APR_2026).pdf,443
IMROG,IMROG,SIGNIFICANT_POINT,SOUTH AFRICA / FAJA-FACA FIR,-32.1785861111,26.6540083333,SACAA,2026-04-15,https://caasanwebsitestorage.blob.core.windows.net/aeronautical-information-publication/Enroute%20(15_APR_2026).pdf,443
IMSIR,IMSIR,SIGNIFICANT_POINT,SOUTH AFRICA / FAJA-FACA FIR,-27.9960361111,24.9669972222,SACAA,2026-04-15,https://caasanwebsitestorage.blob.core.windows.net/aeronautical-information-publication/Enroute%20(15_APR_2026).pdf,443
IMSOM,IMSOM,SIGNIFICANT_POINT,SOUTH AFRICA / FAJA-FACA FIR,-33.9344166667,18.0086777778,SACAA,2026-04-15,https://caasanwebsitestorage.blob.core.windows.net/aeronautical-information-publication/Enroute%20(15_APR_2026).pdf,443
ITGAD,ITGAD,SIGNIFICANT_POINT,SOUTH AFRICA / FAJA-FACA FIR,-31.7166666667,10.0000000000,SACAA,2026-04-15,https://caasanwebsitestorage.blob.core.windows.net/aeronautical-information-publication/Enroute%20(15_APR_2026).pdf,443
ITGIV,ITGIV,SIGNIFICANT_POINT,SOUTH AFRICA / FAJA-FACA FIR,-32.9333333333,-10.0000000000,SACAA,2026-04-15,https://caasanwebsitestorage.blob.core.windows.net/aeronautical-information-publication/Enroute%20(15_APR_2026).pdf,443
ITKIT,ITKIT,SIGNIFICANT_POINT,SOUTH AFRICA / FAJA-FACA FIR,-33.3603527778,26.1640027778,SACAA,2026-04-15,https://caasanwebsitestorage.blob.core.windows.net/aeronautical-information-publication/Enroute%20(15_APR_2026).pdf,443
ITKOT,ITKOT,SIGNIFICANT_POINT,SOUTH AFRICA / FAJA-FACA FIR,-28.0614361111,18.6112166667,SACAA,2026-04-15,https://caasanwebsitestorage.blob.core.windows.net/aeronautical-information-publication/Enroute%20(15_APR_2026).pdf,443
ITLIK,ITLIK,SIGNIFICANT_POINT,SOUTH AFRICA / FAJA-FACA FIR,-35.2666666667,14.9991666667,SACAA,2026-04-15,https://caasanwebsitestorage.blob.core.windows.net/aeronautical-information-publication/Enroute%20(15_APR_2026).pdf,443
ITMEK,ITMEK,SIGNIFICANT_POINT,SOUTH AFRICA / FAJA-FACA FIR,-34.2000000000,15.0000000000,SACAA,2026-04-15,https://caasanwebsitestorage.blob.core.windows.net/aeronautical-information-publication/Enroute%20(15_APR_2026).pdf,443
ITMIL,ITMIL,SIGNIFICANT_POINT,SOUTH AFRICA / FAJA-FACA FIR,-29.0308472222,31.8106666667,SACAA,2026-04-15,https://caasanwebsitestorage.blob.core.windows.net/aeronautical-information-publication/Enroute%20(15_APR_2026).pdf,443
ITNOX,ITNOX,SIGNIFICANT_POINT,SOUTH AFRICA / FAJA-FACA FIR,-28.2428583333,17.8892722222,SACAA,2026-04-15,https://caasanwebsitestorage.blob.core.windows.net/aeronautical-information-publication/Enroute%20(15_APR_2026).pdf,443
ITROL,ITROL,SIGNIFICANT_POINT,SOUTH AFRICA / FAJA-FACA FIR,-25.0355472222,27.4348250000,SACAA,2026-04-15,https://caasanwebsitestorage.blob.core.windows.net/aeronautical-information-publication/Enroute%20(15_APR_2026).pdf,443
IXAKU,IXAKU,SIGNIFICANT_POINT,SOUTH AFRICA / FAJA-FACA FIR,-31.3750166667,26.9796194444,SACAA,2026-04-15,https://caasanwebsitestorage.blob.core.windows.net/aeronautical-information-publication/Enroute%20(15_APR_2026).pdf,443
IXARA,IXARA,SIGNIFICANT_POINT,SOUTH AFRICA / FAJA-FACA FIR,-27.9742861111,28.8944666667,SACAA,2026-04-15,https://caasanwebsitestorage.blob.core.windows.net/aeronautical-information-publication/Enroute%20(15_APR_2026).pdf,443
IXEBI,IXEBI,SIGNIFICANT_POINT,SOUTH AFRICA / FAJA-FACA FIR,-31.9647277778,26.3464805556,SACAA,2026-04-15,https://caasanwebsitestorage.blob.core.windows.net/aeronautical-information-publication/Enroute%20(15_APR_2026).pdf,443
IXEKI,IXEKI,SIGNIFICANT_POINT,SOUTH AFRICA / FAJA-FACA FIR,-28.5120694444,27.6769027778,SACAA,2026-04-15,https://caasanwebsitestorage.blob.core.windows.net/aeronautical-information-publication/Enroute%20(15_APR_2026).pdf,443
IXESU,IXESU,SIGNIFICANT_POINT,SOUTH AFRICA / FAJA-FACA FIR,-26.5105555556,31.3330555556,SACAA,2026-04-15,https://caasanwebsitestorage.blob.core.windows.net/aeronautical-information-publication/Enroute%20(15_APR_2026).pdf,443
KATOR,KATOR,SIGNIFICANT_POINT,SOUTH AFRICA / FAJA-FACA FIR,-33.4887388889,22.6428805556,SACAA,2026-04-15,https://caasanwebsitestorage.blob.core.windows.net/aeronautical-information-publication/Enroute%20(15_APR_2026).pdf,443
KEBAT,KEBAT,SIGNIFICANT_POINT,SOUTH AFRICA / FAJA-FACA FIR,-27.5000000000,18.3000000000,SACAA,2026-04-15,https://caasanwebsitestorage.blob.core.windows.net/aeronautical-information-publication/Enroute%20(15_APR_2026).pdf,443
KODES,KODES,SIGNIFICANT_POINT,SOUTH AFRICA / FAJA-FACA FIR,-33.1444444444,18.7555555556,SACAA,2026-04-15,https://caasanwebsitestorage.blob.core.windows.net/aeronautical-information-publication/Enroute%20(15_APR_2026).pdf,443
MASHO,MASHO,SIGNIFICANT_POINT,SOUTH AFRICA / FAJA-FACA FIR,-25.5968450833,30.9455024444,SACAA,2026-04-15,https://caasanwebsitestorage.blob.core.windows.net/aeronautical-information-publication/Enroute%20(15_APR_2026).pdf,443
MITAR,MITAR,SIGNIFICANT_POINT,SOUTH AFRICA / FAJA-FACA FIR,-27.8787388889,18.3310722222,SACAA,2026-04-15,https://caasanwebsitestorage.blob.core.windows.net/aeronautical-information-publication/Enroute%20(15_APR_2026).pdf,443
MUNES,MUNES,SIGNIFICANT_POINT,SOUTH AFRICA / FAJA-FACA FIR,-40.3333333333,-10.0000000000,SACAA,2026-04-15,https://caasanwebsitestorage.blob.core.windows.net/aeronautical-information-publication/Enroute%20(15_APR_2026).pdf,443
MUVAL,MUVAL,SIGNIFICANT_POINT,SOUTH AFRICA / FAJA-FACA FIR,-26.6244444444,31.1658333333,SACAA,2026-04-15,https://caasanwebsitestorage.blob.core.windows.net/aeronautical-information-publication/Enroute%20(15_APR_2026).pdf,443
NAMGU,NAMGU,SIGNIFICANT_POINT,SOUTH AFRICA / FAJA-FACA FIR,-30.2844833333,29.7995694444,SACAA,2026-04-15,https://caasanwebsitestorage.blob.core.windows.net/aeronautical-information-publication/Enroute%20(15_APR_2026).pdf,444
NEPUM,NEPUM,SIGNIFICANT_POINT,SOUTH AFRICA / FAJA-FACA FIR,-32.2641666667,32.4619444444,SACAA,2026-04-15,https://caasanwebsitestorage.blob.core.windows.net/aeronautical-information-publication/Enroute%20(15_APR_2026).pdf,444
NERAX,NERAX,SIGNIFICANT_POINT,SOUTH AFRICA / FAJA-FACA FIR,-36.0186111111,29.0277777778,SACAA,2026-04-15,https://caasanwebsitestorage.blob.core.windows.net/aeronautical-information-publication/Enroute%20(15_APR_2026).pdf,444
NERUR,NERUR,SIGNIFICANT_POINT,SOUTH AFRICA / FAJA-FACA FIR,-34.1769722222,25.4737694444,SACAA,2026-04-15,https://caasanwebsitestorage.blob.core.windows.net/aeronautical-information-publication/Enroute%20(15_APR_2026).pdf,444
NESAG,NESAG,SIGNIFICANT_POINT,SOUTH AFRICA / FAJA-FACA FIR,-24.9467222222,28.8509833333,SACAA,2026-04-15,https://caasanwebsitestorage.blob.core.windows.net/aeronautical-information-publication/Enroute%20(15_APR_2026).pdf,444
NESAN,NESAN,SIGNIFICANT_POINT,SOUTH AFRICA / FAJA-FACA FIR,-25.4969111111,28.1182111111,SACAA,2026-04-15,https://caasanwebsitestorage.blob.core.windows.net/aeronautical-information-publication/Enroute%20(15_APR_2026).pdf,444
NESEK,NESEK,SIGNIFICANT_POINT,SOUTH AFRICA / FAJA-FACA FIR,-25.0316666667,26.6166666667,SACAA,2026-04-15,https://caasanwebsitestorage.blob.core.windows.net/aeronautical-information-publication/Enroute%20(15_APR_2026).pdf,444
NESUS,NESUS,SIGNIFICANT_POINT,SOUTH AFRICA / FAJA-FACA FIR,-30.6744722222,21.7650722222,SACAA,2026-04-15,https://caasanwebsitestorage.blob.core.windows.net/aeronautical-information-publication/Enroute%20(15_APR_2026).pdf,444
NEVAR,NEVAR,SIGNIFICANT_POINT,SOUTH AFRICA / FAJA-FACA FIR,-27.5134305556,17.8327222222,SACAA,2026-04-15,https://caasanwebsitestorage.blob.core.windows.net/aeronautical-information-publication/Enroute%20(15_APR_2026).pdf,444
NEVEN,NEVEN,SIGNIFICANT_POINT,SOUTH AFRICA / FAJA-FACA FIR,-27.4830972222,28.0491944444,SACAA,2026-04-15,https://caasanwebsitestorage.blob.core.windows.net/aeronautical-information-publication/Enroute%20(15_APR_2026).pdf,444
NEVUK,NEVUK,SIGNIFICANT_POINT,SOUTH AFRICA / FAJA-FACA FIR,-24.8390083333,29.9234000000,SACAA,2026-04-15,https://caasanwebsitestorage.blob.core.windows.net/aeronautical-information-publication/Enroute%20(15_APR_2026).pdf,444
NEXAB,NEXAB,SIGNIFICANT_POINT,SOUTH AFRICA / FAJA-FACA FIR,-29.6830194444,30.6721555556,SACAA,2026-04-15,https://caasanwebsitestorage.blob.core.windows.net/aeronautical-information-publication/Enroute%20(15_APR_2026).pdf,444
NEXIS,NEXIS,SIGNIFICANT_POINT,SOUTH AFRICA / FAJA-FACA FIR,-25.8541694444,31.2035638889,SACAA,2026-04-15,https://caasanwebsitestorage.blob.core.windows.net/aeronautical-information-publication/Enroute%20(15_APR_2026).pdf,444
NEXIT,NEXIT,SIGNIFICANT_POINT,SOUTH AFRICA / FAJA-FACA FIR,-30.5244222222,20.3759361111,SACAA,2026-04-15,https://caasanwebsitestorage.blob.core.windows.net/aeronautical-information-publication/Enroute%20(15_APR_2026).pdf,444
NEXUL,NEXUL,SIGNIFICANT_POINT,SOUTH AFRICA / FAJA-FACA FIR,-31.3605416667,29.2468777778,SACAA,2026-04-15,https://caasanwebsitestorage.blob.core.windows.net/aeronautical-information-publication/Enroute%20(15_APR_2026).pdf,444
NIBEX,NIBEX,SIGNIFICANT_POINT,SOUTH AFRICA / FAJA-FACA FIR,-26.8237666667,27.6703916667,SACAA,2026-04-15,https://caasanwebsitestorage.blob.core.windows.net/aeronautical-information-publication/Enroute%20(15_APR_2026).pdf,444
NIBOP,NIBOP,SIGNIFICANT_POINT,SOUTH AFRICA / FAJA-FACA FIR,-31.2543694444,29.1307916667,SACAA,2026-04-15,https://caasanwebsitestorage.blob.core.windows.net/aeronautical-information-publication/Enroute%20(15_APR_2026).pdf,444
NIDEM,NIDEM,SIGNIFICANT_POINT,SOUTH AFRICA / FAJA-FACA FIR,-29.5693055556,28.7358611111,SACAA,2026-04-15,https://caasanwebsitestorage.blob.core.windows.net/aeronautical-information-publication/Enroute%20(15_APR_2026).pdf,444
NIDIG,NIDIG,SIGNIFICANT_POINT,SOUTH AFRICA / FAJA-FACA FIR,-28.8018861111,27.0051333333,SACAA,2026-04-15,https://caasanwebsitestorage.blob.core.windows.net/aeronautical-information-publication/Enroute%20(15_APR_2026).pdf,444
NIDOX,NIDOX,SIGNIFICANT_POINT,SOUTH AFRICA / FAJA-FACA FIR,-31.1829944444,24.6128361111,SACAA,2026-04-15,https://caasanwebsitestorage.blob.core.windows.net/aeronautical-information-publication/Enroute%20(15_APR_2026).pdf,444
NOKOX,NOKOX,SIGNIFICANT_POINT,SOUTH AFRICA / FAJA-FACA FIR,-33.0206194444,19.7175944444,SACAA,2026-04-15,https://caasanwebsitestorage.blob.core.windows.net/aeronautical-information-publication/Enroute%20(15_APR_2026).pdf,444
ODKER,ODKER,SIGNIFICANT_POINT,SOUTH AFRICA / FAJA-FACA FIR,-24.1416666667,28.0833333333,SACAA,2026-04-15,https://caasanwebsitestorage.blob.core.windows.net/aeronautical-information-publication/Enroute%20(15_APR_2026).pdf,444
OKBIL,OKBIL,SIGNIFICANT_POINT,SOUTH AFRICA / FAJA-FACA FIR,-31.2122944444,23.3975861111,SACAA,2026-04-15,https://caasanwebsitestorage.blob.core.windows.net/aeronautical-information-publication/Enroute%20(15_APR_2026).pdf,444
OKBUR,OKBUR,SIGNIFICANT_POINT,SOUTH AFRICA / FAJA-FACA FIR,-33.1590527778,27.6366138889,SACAA,2026-04-15,https://caasanwebsitestorage.blob.core.windows.net/aeronautical-information-publication/Enroute%20(15_APR_2026).pdf,444
OKBUS,OKBUS,SIGNIFICANT_POINT,SOUTH AFRICA / FAJA-FACA FIR,-30.4965111111,28.3127583333,SACAA,2026-04-15,https://caasanwebsitestorage.blob.core.windows.net/aeronautical-information-publication/Enroute%20(15_APR_2026).pdf,444
OKDIN,OKDIN,SIGNIFICANT_POINT,SOUTH AFRICA / FAJA-FACA FIR,-28.1546527778,28.4899555556,SACAA,2026-04-15,https://caasanwebsitestorage.blob.core.windows.net/aeronautical-information-publication/Enroute%20(15_APR_2026).pdf,444
OKDOG,OKDOG,SIGNIFICANT_POINT,SOUTH AFRICA / FAJA-FACA FIR,-33.0833333333,15.0000000000,SACAA,2026-04-15,https://caasanwebsitestorage.blob.core.windows.net/aeronautical-information-publication/Enroute%20(15_APR_2026).pdf,444
OKDOV,OKDOV,SIGNIFICANT_POINT,SOUTH AFRICA / FAJA-FACA FIR,-27.8667673611,29.6884128333,SACAA,2026-04-15,https://caasanwebsitestorage.blob.core.windows.net/aeronautical-information-publication/Enroute%20(15_APR_2026).pdf,444
OKLIL,OKLIL,SIGNIFICANT_POINT,SOUTH AFRICA / FAJA-FACA FIR,-24.8196222222,30.2091222222,SACAA,2026-04-15,https://caasanwebsitestorage.blob.core.windows.net/aeronautical-information-publication/Enroute%20(15_APR_2026).pdf,444
OKLOK,OKLOK,SIGNIFICANT_POINT,SOUTH AFRICA / FAJA-FACA FIR,-32.8081166667,19.3772000000,SACAA,2026-04-15,https://caasanwebsitestorage.blob.core.windows.net/aeronautical-information-publication/Enroute%20(15_APR_2026).pdf,444
OKLOL,OKLOL,SIGNIFICANT_POINT,SOUTH AFRICA / FAJA-FACA FIR,-31.0078333333,28.8626416667,SACAA,2026-04-15,https://caasanwebsitestorage.blob.core.windows.net/aeronautical-information-publication/Enroute%20(15_APR_2026).pdf,444
OKPIT,OKPIT,SIGNIFICANT_POINT,SOUTH AFRICA / FAJA-FACA FIR,-25.4622833333,28.7423777778,SACAA,2026-04-15,https://caasanwebsitestorage.blob.core.windows.net/aeronautical-information-publication/Enroute%20(15_APR_2026).pdf,444
OKPUN,OKPUN,SIGNIFICANT_POINT,SOUTH AFRICA / FAJA-FACA FIR,-31.7926750000,26.8112888889,SACAA,2026-04-15,https://caasanwebsitestorage.blob.core.windows.net/aeronautical-information-publication/Enroute%20(15_APR_2026).pdf,444
OKRAV,OKRAV,SIGNIFICANT_POINT,SOUTH AFRICA / FAJA-FACA FIR,-33.9916305556,24.6034916667,SACAA,2026-04-15,https://caasanwebsitestorage.blob.core.windows.net/aeronautical-information-publication/Enroute%20(15_APR_2026).pdf,444
OKREV,OKREV,SIGNIFICANT_POINT,SOUTH AFRICA / FAJA-FACA FIR,-30.5264805556,28.0335166667,SACAA,2026-04-15,https://caasanwebsitestorage.blob.core.windows.net/aeronautical-information-publication/Enroute%20(15_APR_2026).pdf,444
OKRIP,OKRIP,SIGNIFICANT_POINT,SOUTH AFRICA / FAJA-FACA FIR,-25.8828222222,30.6927527778,SACAA,2026-04-15,https://caasanwebsitestorage.blob.core.windows.net/aeronautical-information-publication/Enroute%20(15_APR_2026).pdf,444
OKRUL,OKRUL,SIGNIFICANT_POINT,SOUTH AFRICA / FAJA-FACA FIR,-30.5399777778,18.8676222222,SACAA,2026-04-15,https://caasanwebsitestorage.blob.core.windows.net/aeronautical-information-publication/Enroute%20(15_APR_2026).pdf,444
OKSAD,OKSAD,SIGNIFICANT_POINT,SOUTH AFRICA / FAJA-FACA FIR,-26.8222222222,30.8000000000,SACAA,2026-04-15,https://caasanwebsitestorage.blob.core.windows.net/aeronautical-information-publication/Enroute%20(15_APR_2026).pdf,444
OKSET,OKSET,SIGNIFICANT_POINT,SOUTH AFRICA / FAJA-FACA FIR,-34.2169694444,24.6391750000,SACAA,2026-04-15,https://caasanwebsitestorage.blob.core.windows.net/aeronautical-information-publication/Enroute%20(15_APR_2026).pdf,444
OKSOP,OKSOP,SIGNIFICANT_POINT,SOUTH AFRICA / FAJA-FACA FIR,-31.2655888889,24.1424277778,SACAA,2026-04-15,https://caasanwebsitestorage.blob.core.windows.net/aeronautical-information-publication/Enroute%20(15_APR_2026).pdf,444
OKTAN,OKTAN,SIGNIFICANT_POINT,SOUTH AFRICA / FAJA-FACA FIR,-30.2995333333,30.5814833333,SACAA,2026-04-15,https://caasanwebsitestorage.blob.core.windows.net/aeronautical-information-publication/Enroute%20(15_APR_2026).pdf,444
OKTED,OKTED,SIGNIFICANT_POINT,SOUTH AFRICA / FAJA-FACA FIR,-34.2200000000,19.5583333333,SACAA,2026-04-15,https://caasanwebsitestorage.blob.core.windows.net/aeronautical-information-publication/Enroute%20(15_APR_2026).pdf,444
OKTEK,OKTEK,SIGNIFICANT_POINT,SOUTH AFRICA / FAJA-FACA FIR,-27.4765416667,28.4633777778,SACAA,2026-04-15,https://caasanwebsitestorage.blob.core.windows.net/aeronautical-information-publication/Enroute%20(15_APR_2026).pdf,445
OKTEL,OKTEL,SIGNIFICANT_POINT,SOUTH AFRICA / FAJA-FACA FIR,-28.1316138889,15.0000000000,SACAA,2026-04-15,https://caasanwebsitestorage.blob.core.windows.net/aeronautical-information-publication/Enroute%20(15_APR_2026).pdf,445
OKTIG,OKTIG,SIGNIFICANT_POINT,SOUTH AFRICA / FAJA-FACA FIR,-28.4774111111,26.7780111111,SACAA,2026-04-15,https://caasanwebsitestorage.blob.core.windows.net/aeronautical-information-publication/Enroute%20(15_APR_2026).pdf,445
ORKAN,ORKAN,SIGNIFICANT_POINT,SOUTH AFRICA / FAJA-FACA FIR,-24.5416666667,26.9166666667,SACAA,2026-04-15,https://caasanwebsitestorage.blob.core.windows.net/aeronautical-information-publication/Enroute%20(15_APR_2026).pdf,445
ORNAD,ORNAD,SIGNIFICANT_POINT,SOUTH AFRICA / FAJA-FACA FIR,-25.9166666667,31.9666666667,SACAA,2026-04-15,https://caasanwebsitestorage.blob.core.windows.net/aeronautical-information-publication/Enroute%20(15_APR_2026).pdf,445
OSEPA,OSEPA,SIGNIFICANT_POINT,SOUTH AFRICA / FAJA-FACA FIR,-23.0000000000,0.0000000000,SACAA,2026-04-15,https://caasanwebsitestorage.blob.core.windows.net/aeronautical-information-publication/Enroute%20(15_APR_2026).pdf,445
OVALA,OVALA,SIGNIFICANT_POINT,SOUTH AFRICA / FAJA-FACA FIR,-26.8176083333,28.6290833333,SACAA,2026-04-15,https://caasanwebsitestorage.blob.core.windows.net/aeronautical-information-publication/Enroute%20(15_APR_2026).pdf,445
PAREK,PAREK,SIGNIFICANT_POINT,SOUTH AFRICA / FAJA-FACA FIR,-28.4955111111,16.2659750000,SACAA,2026-04-15,https://caasanwebsitestorage.blob.core.windows.net/aeronautical-information-publication/Enroute%20(15_APR_2026).pdf,445
PEDIL,PEDIL,SIGNIFICANT_POINT,SOUTH AFRICA / FAJA-FACA FIR,-25.6593527778,26.8594583333,SACAA,2026-04-15,https://caasanwebsitestorage.blob.core.windows.net/aeronautical-information-publication/Enroute%20(15_APR_2026).pdf,445
RAGUL,RAGUL,SIGNIFICANT_POINT,SOUTH AFRICA / FAJA-FACA FIR,-26.4484305556,27.5788583333,SACAA,2026-04-15,https://caasanwebsitestorage.blob.core.windows.net/aeronautical-information-publication/Enroute%20(15_APR_2026).pdf,445
RUDAS,RUDAS,SIGNIFICANT_POINT,SOUTH AFRICA / FAJA-FACA FIR,-24.3233333333,26.7350000000,SACAA,2026-04-15,https://caasanwebsitestorage.blob.core.windows.net/aeronautical-information-publication/Enroute%20(15_APR_2026).pdf,445
TAVLA,TAVLA,SIGNIFICANT_POINT,SOUTH AFRICA / FAJA-FACA FIR,-22.6233333333,28.2933333333,SACAA,2026-04-15,https://caasanwebsitestorage.blob.core.windows.net/aeronautical-information-publication/Enroute%20(15_APR_2026).pdf,445
TESUN,TESUN,SIGNIFICANT_POINT,SOUTH AFRICA / FAJA-FACA FIR,-27.9623583333,29.1846472222,SACAA,2026-04-15,https://caasanwebsitestorage.blob.core.windows.net/aeronautical-information-publication/Enroute%20(15_APR_2026).pdf,445
TESUP,TESUP,SIGNIFICANT_POINT,SOUTH AFRICA / FAJA-FACA FIR,-33.8022694444,25.7418944444,SACAA,2026-04-15,https://caasanwebsitestorage.blob.core.windows.net/aeronautical-information-publication/Enroute%20(15_APR_2026).pdf,445
TETAN,TETAN,SIGNIFICANT_POINT,SOUTH AFRICA / FAJA-FACA FIR,-33.6633333333,19.4161111111,SACAA,2026-04-15,https://caasanwebsitestorage.blob.core.windows.net/aeronautical-information-publication/Enroute%20(15_APR_2026).pdf,445
TETIK,TETIK,SIGNIFICANT_POINT,SOUTH AFRICA / FAJA-FACA FIR,-26.5706055556,29.6403694444,SACAA,2026-04-15,https://caasanwebsitestorage.blob.core.windows.net/aeronautical-information-publication/Enroute%20(15_APR_2026).pdf,445
TETUS,TETUS,SIGNIFICANT_POINT,SOUTH AFRICA / FAJA-FACA FIR,-25.5262222222,25.6390861111,SACAA,2026-04-15,https://caasanwebsitestorage.blob.core.windows.net/aeronautical-information-publication/Enroute%20(15_APR_2026).pdf,445
TEVAP,TEVAP,SIGNIFICANT_POINT,SOUTH AFRICA / FAJA-FACA FIR,-24.7416666667,32.0016666667,SACAA,2026-04-15,https://caasanwebsitestorage.blob.core.windows.net/aeronautical-information-publication/Enroute%20(15_APR_2026).pdf,445
TEVAR,TEVAR,SIGNIFICANT_POINT,SOUTH AFRICA / FAJA-FACA FIR,-27.2059361111,27.3092333333,SACAA,2026-04-15,https://caasanwebsitestorage.blob.core.windows.net/aeronautical-information-publication/Enroute%20(15_APR_2026).pdf,445
TEXAB,TEXAB,SIGNIFICANT_POINT,SOUTH AFRICA / FAJA-FACA FIR,-30.5343888889,16.9386361111,SACAA,2026-04-15,https://caasanwebsitestorage.blob.core.windows.net/aeronautical-information-publication/Enroute%20(15_APR_2026).pdf,445
TEXIP,TEXIP,SIGNIFICANT_POINT,SOUTH AFRICA / FAJA-FACA FIR,-26.2177138889,25.5070750000,SACAA,2026-04-15,https://caasanwebsitestorage.blob.core.windows.net/aeronautical-information-publication/Enroute%20(15_APR_2026).pdf,445
TEXIS,TEXIS,SIGNIFICANT_POINT,SOUTH AFRICA / FAJA-FACA FIR,-33.2655583333,20.3824250000,SACAA,2026-04-15,https://caasanwebsitestorage.blob.core.windows.net/aeronautical-information-publication/Enroute%20(15_APR_2026).pdf,445
TEXON,TEXON,SIGNIFICANT_POINT,SOUTH AFRICA / FAJA-FACA FIR,-25.1740833333,28.0112944444,SACAA,2026-04-15,https://caasanwebsitestorage.blob.core.windows.net/aeronautical-information-publication/Enroute%20(15_APR_2026).pdf,445
TIDAX,TIDAX,SIGNIFICANT_POINT,SOUTH AFRICA / FAJA-FACA FIR,-31.5095972222,28.0703722222,SACAA,2026-04-15,https://caasanwebsitestorage.blob.core.windows.net/aeronautical-information-publication/Enroute%20(15_APR_2026).pdf,445
TIDUP,TIDUP,SIGNIFICANT_POINT,SOUTH AFRICA / FAJA-FACA FIR,-24.4041861111,29.8366083333,SACAA,2026-04-15,https://caasanwebsitestorage.blob.core.windows.net/aeronautical-information-publication/Enroute%20(15_APR_2026).pdf,445
TIKER,TIKER,SIGNIFICANT_POINT,SOUTH AFRICA / FAJA-FACA FIR,-32.4005888889,26.1711611111,SACAA,2026-04-15,https://caasanwebsitestorage.blob.core.windows.net/aeronautical-information-publication/Enroute%20(15_APR_2026).pdf,445
TIKIG,TIKIG,SIGNIFICANT_POINT,SOUTH AFRICA / FAJA-FACA FIR,-27.0169133333,22.4043827778,SACAA,2026-04-15,https://caasanwebsitestorage.blob.core.windows.net/aeronautical-information-publication/Enroute%20(15_APR_2026).pdf,445
TIKIL,TIKIL,SIGNIFICANT_POINT,SOUTH AFRICA / FAJA-FACA FIR,-31.2561666667,23.5339166667,SACAA,2026-04-15,https://caasanwebsitestorage.blob.core.windows.net/aeronautical-information-publication/Enroute%20(15_APR_2026).pdf,445
TILAS,TILAS,SIGNIFICANT_POINT,SOUTH AFRICA / FAJA-FACA FIR,-34.1149688889,22.6094900000,SACAA,2026-04-15,https://caasanwebsitestorage.blob.core.windows.net/aeronautical-information-publication/Enroute%20(15_APR_2026).pdf,445
TILIR,TILIR,SIGNIFICANT_POINT,SOUTH AFRICA / FAJA-FACA FIR,-25.7811861111,30.7778805556,SACAA,2026-04-15,https://caasanwebsitestorage.blob.core.windows.net/aeronautical-information-publication/Enroute%20(15_APR_2026).pdf,445
TONKA,TONKA,SIGNIFICANT_POINT,SOUTH AFRICA / FAJA-FACA FIR,-26.1233333333,32.1050000000,SACAA,2026-04-15,https://caasanwebsitestorage.blob.core.windows.net/aeronautical-information-publication/Enroute%20(15_APR_2026).pdf,445
TUBIN,TUBIN,SIGNIFICANT_POINT,SOUTH AFRICA / FAJA-FACA FIR,-30.0336916667,30.2985166667,SACAA,2026-04-15,https://caasanwebsitestorage.blob.core.windows.net/aeronautical-information-publication/Enroute%20(15_APR_2026).pdf,445
UBVER,UBVER,SIGNIFICANT_POINT,SOUTH AFRICA / FAJA-FACA FIR,-27.9226972222,14.2947027778,SACAA,2026-04-15,https://caasanwebsitestorage.blob.core.windows.net/aeronautical-information-publication/Enroute%20(15_APR_2026).pdf,445
UDBUL,UDBUL,SIGNIFICANT_POINT,SOUTH AFRICA / FAJA-FACA FIR,-25.2010583333,26.4668111111,SACAA,2026-04-15,https://caasanwebsitestorage.blob.core.windows.net/aeronautical-information-publication/Enroute%20(15_APR_2026).pdf,445
UDLON,UDLON,SIGNIFICANT_POINT,SOUTH AFRICA / FAJA-FACA FIR,-27.7307138889,20.8131444444,SACAA,2026-04-15,https://caasanwebsitestorage.blob.core.windows.net/aeronautical-information-publication/Enroute%20(15_APR_2026).pdf,445
UDLUM,UDLUM,SIGNIFICANT_POINT,SOUTH AFRICA / FAJA-FACA FIR,-25.2727777778,23.3869694444,SACAA,2026-04-15,https://caasanwebsitestorage.blob.core.windows.net/aeronautical-information-publication/Enroute%20(15_APR_2026).pdf,445
UDMEV,UDMEV,SIGNIFICANT_POINT,SOUTH AFRICA / FAJA-FACA FIR,-25.7909305556,28.5613361111,SACAA,2026-04-15,https://caasanwebsitestorage.blob.core.windows.net/aeronautical-information-publication/Enroute%20(15_APR_2026).pdf,445
UDNEG,UDNEG,SIGNIFICANT_POINT,SOUTH AFRICA / FAJA-FACA FIR,-34.0532766389,23.0731819722,SACAA,2026-04-15,https://caasanwebsitestorage.blob.core.windows.net/aeronautical-information-publication/Enroute%20(15_APR_2026).pdf,445
UMTOL,UMTOL,SIGNIFICANT_POINT,SOUTH AFRICA / FAJA-FACA FIR,-27.4986527778,20.6612694444,SACAA,2026-04-15,https://caasanwebsitestorage.blob.core.windows.net/aeronautical-information-publication/Enroute%20(15_APR_2026).pdf,445
UMVET,UMVET,SIGNIFICANT_POINT,SOUTH AFRICA / FAJA-FACA FIR,-24.9321305556,31.0650500000,SACAA,2026-04-15,https://caasanwebsitestorage.blob.core.windows.net/aeronautical-information-publication/Enroute%20(15_APR_2026).pdf,445
UNDIT,UNDIT,SIGNIFICANT_POINT,SOUTH AFRICA / FAJA-FACA FIR,-25.4464305556,29.2044555556,SACAA,2026-04-15,https://caasanwebsitestorage.blob.core.windows.net/aeronautical-information-publication/Enroute%20(15_APR_2026).pdf,445
UNGEK,UNGEK,SIGNIFICANT_POINT,SOUTH AFRICA / FAJA-FACA FIR,-26.9078638889,25.4573250000,SACAA,2026-04-15,https://caasanwebsitestorage.blob.core.windows.net/aeronautical-information-publication/Enroute%20(15_APR_2026).pdf,446
UNGOR,UNGOR,SIGNIFICANT_POINT,SOUTH AFRICA / FAJA-FACA FIR,-34.1920146667,23.4702084167,SACAA,2026-04-15,https://caasanwebsitestorage.blob.core.windows.net/aeronautical-information-publication/Enroute%20(15_APR_2026).pdf,446
UNGOS,UNGOS,SIGNIFICANT_POINT,SOUTH AFRICA / FAJA-FACA FIR,-28.3737388889,18.4030111111,SACAA,2026-04-15,https://caasanwebsitestorage.blob.core.windows.net/aeronautical-information-publication/Enroute%20(15_APR_2026).pdf,446
UNLOD,UNLOD,SIGNIFICANT_POINT,SOUTH AFRICA / FAJA-FACA FIR,-28.9181527778,26.4176000000,SACAA,2026-04-15,https://caasanwebsitestorage.blob.core.windows.net/aeronautical-information-publication/Enroute%20(15_APR_2026).pdf,446
UNPAX,UNPAX,SIGNIFICANT_POINT,SOUTH AFRICA / FAJA-FACA FIR,-24.8485722222,31.0625611111,SACAA,2026-04-15,https://caasanwebsitestorage.blob.core.windows.net/aeronautical-information-publication/Enroute%20(15_APR_2026).pdf,446
UNPEN,UNPEN,SIGNIFICANT_POINT,SOUTH AFRICA / FAJA-FACA FIR,-25.1120583333,32.0325388889,SACAA,2026-04-15,https://caasanwebsitestorage.blob.core.windows.net/aeronautical-information-publication/Enroute%20(15_APR_2026).pdf,446
UNRAD,UNRAD,SIGNIFICANT_POINT,SOUTH AFRICA / FAJA-FACA FIR,-33.9724055556,25.8687750000,SACAA,2026-04-15,https://caasanwebsitestorage.blob.core.windows.net/aeronautical-information-publication/Enroute%20(15_APR_2026).pdf,446
UNRAG,UNRAG,SIGNIFICANT_POINT,SOUTH AFRICA / FAJA-FACA FIR,-28.3636444444,26.0192111111,SACAA,2026-04-15,https://caasanwebsitestorage.blob.core.windows.net/aeronautical-information-publication/Enroute%20(15_APR_2026).pdf,446
UNRES,UNRES,SIGNIFICANT_POINT,SOUTH AFRICA / FAJA-FACA FIR,-33.8786944444,20.9822888889,SACAA,2026-04-15,https://caasanwebsitestorage.blob.core.windows.net/aeronautical-information-publication/Enroute%20(15_APR_2026).pdf,446
USENA,USENA,SIGNIFICANT_POINT,SOUTH AFRICA / FAJA-FACA FIR,-18.4633333333,-6.1200000000,SACAA,2026-04-15,https://caasanwebsitestorage.blob.core.windows.net/aeronautical-information-publication/Enroute%20(15_APR_2026).pdf,446
USUNI,USUNI,SIGNIFICANT_POINT,SOUTH AFRICA / FAJA-FACA FIR,-31.7470475000,28.8426252778,SACAA,2026-04-15,https://caasanwebsitestorage.blob.core.windows.net/aeronautical-information-publication/Enroute%20(15_APR_2026).pdf,446
UTANI,UTANI,SIGNIFICANT_POINT,SOUTH AFRICA / FAJA-FACA FIR,-27.2296472222,21.0096666667,SACAA,2026-04-15,https://caasanwebsitestorage.blob.core.windows.net/aeronautical-information-publication/Enroute%20(15_APR_2026).pdf,446
UTEBA,UTEBA,SIGNIFICANT_POINT,SOUTH AFRICA / FAJA-FACA FIR,-26.9530555556,27.0373000000,SACAA,2026-04-15,https://caasanwebsitestorage.blob.core.windows.net/aeronautical-information-publication/Enroute%20(15_APR_2026).pdf,446
UTELU,UTELU,SIGNIFICANT_POINT,SOUTH AFRICA / FAJA-FACA FIR,-34.1117000000,22.0668805556,SACAA,2026-04-15,https://caasanwebsitestorage.blob.core.windows.net/aeronautical-information-publication/Enroute%20(15_APR_2026).pdf,446
UTERI,UTERI,SIGNIFICANT_POINT,SOUTH AFRICA / FAJA-FACA FIR,-28.5373527778,23.7022944444,SACAA,2026-04-15,https://caasanwebsitestorage.blob.core.windows.net/aeronautical-information-publication/Enroute%20(15_APR_2026).pdf,446
UTIGU,UTIGU,SIGNIFICANT_POINT,SOUTH AFRICA / FAJA-FACA FIR,-23.8299972222,28.6189777778,SACAA,2026-04-15,https://caasanwebsitestorage.blob.core.windows.net/aeronautical-information-publication/Enroute%20(15_APR_2026).pdf,446
UTIMO,UTIMO,SIGNIFICANT_POINT,SOUTH AFRICA / FAJA-FACA FIR,-30.7112166667,30.2518138889,SACAA,2026-04-15,https://caasanwebsitestorage.blob.core.windows.net/aeronautical-information-publication/Enroute%20(15_APR_2026).pdf,446
UTONU,UTONU,SIGNIFICANT_POINT,SOUTH AFRICA / FAJA-FACA FIR,-28.8711638889,26.8097472222,SACAA,2026-04-15,https://caasanwebsitestorage.blob.core.windows.net/aeronautical-information-publication/Enroute%20(15_APR_2026).pdf,446
UTOXO,UTOXO,SIGNIFICANT_POINT,SOUTH AFRICA / FAJA-FACA FIR,-31.6059388889,29.5166166667,SACAA,2026-04-15,https://caasanwebsitestorage.blob.core.windows.net/aeronautical-information-publication/Enroute%20(15_APR_2026).pdf,446
UTREV,UTREV,SIGNIFICANT_POINT,SOUTH AFRICA / FAJA-FACA FIR,-33.7678972222,18.4118416667,SACAA,2026-04-15,https://caasanwebsitestorage.blob.core.windows.net/aeronautical-information-publication/Enroute%20(15_APR_2026).pdf,446
UTREX,UTREX,SIGNIFICANT_POINT,SOUTH AFRICA / FAJA-FACA FIR,-24.9722222222,31.2550277778,SACAA,2026-04-15,https://caasanwebsitestorage.blob.core.windows.net/aeronautical-information-publication/Enroute%20(15_APR_2026).pdf,446
UTRUK,UTRUK,SIGNIFICANT_POINT,SOUTH AFRICA / FAJA-FACA FIR,-25.6758277778,27.8325805556,SACAA,2026-04-15,https://caasanwebsitestorage.blob.core.windows.net/aeronautical-information-publication/Enroute%20(15_APR_2026).pdf,446
UTSEM,UTSEM,SIGNIFICANT_POINT,SOUTH AFRICA / FAJA-FACA FIR,-30.9346250000,25.9688750000,SACAA,2026-04-15,https://caasanwebsitestorage.blob.core.windows.net/aeronautical-information-publication/Enroute%20(15_APR_2026).pdf,446
UTSEV,UTSEV,SIGNIFICANT_POINT,SOUTH AFRICA / FAJA-FACA FIR,-26.5319194444,30.1437805556,SACAA,2026-04-15,https://caasanwebsitestorage.blob.core.windows.net/aeronautical-information-publication/Enroute%20(15_APR_2026).pdf,446
UTSOS,UTSOS,SIGNIFICANT_POINT,SOUTH AFRICA / FAJA-FACA FIR,-28.4827777778,20.9922222222,SACAA,2026-04-15,https://caasanwebsitestorage.blob.core.windows.net/aeronautical-information-publication/Enroute%20(15_APR_2026).pdf,446
UTUMI,UTUMI,SIGNIFICANT_POINT,SOUTH AFRICA / FAJA-FACA FIR,-30.5386888889,17.4619250000,SACAA,2026-04-15,https://caasanwebsitestorage.blob.core.windows.net/aeronautical-information-publication/Enroute%20(15_APR_2026).pdf,446
UTUPU,UTUPU,SIGNIFICANT_POINT,SOUTH AFRICA / FAJA-FACA FIR,-24.4903472222,29.6800777778,SACAA,2026-04-15,https://caasanwebsitestorage.blob.core.windows.net/aeronautical-information-publication/Enroute%20(15_APR_2026).pdf,446
UVBUV,UVBUV,SIGNIFICANT_POINT,SOUTH AFRICA / FAJA-FACA FIR,-25.4415414722,31.6711281111,SACAA,2026-04-15,https://caasanwebsitestorage.blob.core.windows.net/aeronautical-information-publication/Enroute%20(15_APR_2026).pdf,446
UVDEX,UVDEX,SIGNIFICANT_POINT,SOUTH AFRICA / FAJA-FACA FIR,-33.5664722222,20.3429722222,SACAA,2026-04-15,https://caasanwebsitestorage.blob.core.windows.net/aeronautical-information-publication/Enroute%20(15_APR_2026).pdf,446
UVDIK,UVDIK,SIGNIFICANT_POINT,SOUTH AFRICA / FAJA-FACA FIR,-28.3202777778,21.5283333333,SACAA,2026-04-15,https://caasanwebsitestorage.blob.core.windows.net/aeronautical-information-publication/Enroute%20(15_APR_2026).pdf,446
UVGOD,UVGOD,SIGNIFICANT_POINT,SOUTH AFRICA / FAJA-FACA FIR,-29.1620194444,15.0000000000,SACAA,2026-04-15,https://caasanwebsitestorage.blob.core.windows.net/aeronautical-information-publication/Enroute%20(15_APR_2026).pdf,446
UVGUK,UVGUK,SIGNIFICANT_POINT,SOUTH AFRICA / FAJA-FACA FIR,-34.2163888889,22.3799111111,SACAA,2026-04-15,https://caasanwebsitestorage.blob.core.windows.net/aeronautical-information-publication/Enroute%20(15_APR_2026).pdf,446
UVIKU,UVIKU,SIGNIFICANT_POINT,SOUTH AFRICA / FAJA-FACA FIR,-33.4595750000,17.5738527778,SACAA,2026-04-15,https://caasanwebsitestorage.blob.core.windows.net/aeronautical-information-publication/Enroute%20(15_APR_2026).pdf,446
UVILA,UVILA,SIGNIFICANT_POINT,SOUTH AFRICA / FAJA-FACA FIR,-27.9944611111,17.8700638889,SACAA,2026-04-15,https://caasanwebsitestorage.blob.core.windows.net/aeronautical-information-publication/Enroute%20(15_APR_2026).pdf,446
UVITI,UVITI,SIGNIFICANT_POINT,SOUTH AFRICA / FAJA-FACA FIR,-25.9285388889,31.7532666667,SACAA,2026-04-15,https://caasanwebsitestorage.blob.core.windows.net/aeronautical-information-publication/Enroute%20(15_APR_2026).pdf,446
UVKIS,UVKIS,SIGNIFICANT_POINT,SOUTH AFRICA / FAJA-FACA FIR,-28.9909750000,24.6516027778,SACAA,2026-04-15,https://caasanwebsitestorage.blob.core.windows.net/aeronautical-information-publication/Enroute%20(15_APR_2026).pdf,446
UVKIX,UVKIX,SIGNIFICANT_POINT,SOUTH AFRICA / FAJA-FACA FIR,-32.6888102778,26.8166438889,SACAA,2026-04-15,https://caasanwebsitestorage.blob.core.windows.net/aeronautical-information-publication/Enroute%20(15_APR_2026).pdf,446
UVLES,UVLES,SIGNIFICANT_POINT,SOUTH AFRICA / FAJA-FACA FIR,-32.3760580000,24.6587650000,SACAA,2026-04-15,https://caasanwebsitestorage.blob.core.windows.net/aeronautical-information-publication/Enroute%20(15_APR_2026).pdf,446
VABOG,VABOG,SIGNIFICANT_POINT,SOUTH AFRICA / FAJA-FACA FIR,-29.3429638889,31.3525638889,SACAA,2026-04-15,https://caasanwebsitestorage.blob.core.windows.net/aeronautical-information-publication/Enroute%20(15_APR_2026).pdf,447
VASUR,VASUR,SIGNIFICANT_POINT,SOUTH AFRICA / FAJA-FACA FIR,-25.5629888889,27.8932972222,SACAA,2026-04-15,https://caasanwebsitestorage.blob.core.windows.net/aeronautical-information-publication/Enroute%20(15_APR_2026).pdf,447
XABDO,XABDO,SIGNIFICANT_POINT,SOUTH AFRICA / FAJA-FACA FIR,-31.5461638889,26.5132805556,SACAA,2026-04-15,https://caasanwebsitestorage.blob.core.windows.net/aeronautical-information-publication/Enroute%20(15_APR_2026).pdf,447
XABIS,XABIS,SIGNIFICANT_POINT,SOUTH AFRICA / FAJA-FACA FIR,-34.2873527778,24.7058166667,SACAA,2026-04-15,https://caasanwebsitestorage.blob.core.windows.net/aeronautical-information-publication/Enroute%20(15_APR_2026).pdf,447
XADUP,XADUP,SIGNIFICANT_POINT,SOUTH AFRICA / FAJA-FACA FIR,-31.0134722222,27.9369833333,SACAA,2026-04-15,https://caasanwebsitestorage.blob.core.windows.net/aeronautical-information-publication/Enroute%20(15_APR_2026).pdf,447
XAGEN,XAGEN,SIGNIFICANT_POINT,SOUTH AFRICA / FAJA-FACA FIR,-26.0624777778,27.3178000000,SACAA,2026-04-15,https://caasanwebsitestorage.blob.core.windows.net/aeronautical-information-publication/Enroute%20(15_APR_2026).pdf,447
XAKIM,XAKIM,SIGNIFICANT_POINT,SOUTH AFRICA / FAJA-FACA FIR,-33.4396250000,26.7966277778,SACAA,2026-04-15,https://caasanwebsitestorage.blob.core.windows.net/aeronautical-information-publication/Enroute%20(15_APR_2026).pdf,447
XALIN,XALIN,SIGNIFICANT_POINT,SOUTH AFRICA / FAJA-FACA FIR,-33.7190805556,22.8670777778,SACAA,2026-04-15,https://caasanwebsitestorage.blob.core.windows.net/aeronautical-information-publication/Enroute%20(15_APR_2026).pdf,447
XALVA,XALVA,SIGNIFICANT_POINT,SOUTH AFRICA / FAJA-FACA FIR,-32.3745305556,19.5667277778,SACAA,2026-04-15,https://caasanwebsitestorage.blob.core.windows.net/aeronautical-information-publication/Enroute%20(15_APR_2026).pdf,447
XAMTA,XAMTA,SIGNIFICANT_POINT,SOUTH AFRICA / FAJA-FACA FIR,-34.2506250000,24.9959944444,SACAA,2026-04-15,https://caasanwebsitestorage.blob.core.windows.net/aeronautical-information-publication/Enroute%20(15_APR_2026).pdf,447
XANDA,XANDA,SIGNIFICANT_POINT,SOUTH AFRICA / FAJA-FACA FIR,-33.1497444444,22.9397305556,SACAA,2026-04-15,https://caasanwebsitestorage.blob.core.windows.net/aeronautical-information-publication/Enroute%20(15_APR_2026).pdf,447
XANRO,XANRO,SIGNIFICANT_POINT,SOUTH AFRICA / FAJA-FACA FIR,-26.4186361111,26.8759861111,SACAA,2026-04-15,https://caasanwebsitestorage.blob.core.windows.net/aeronautical-information-publication/Enroute%20(15_APR_2026).pdf,447
XARMA,XARMA,SIGNIFICANT_POINT,SOUTH AFRICA / FAJA-FACA FIR,-24.7254472222,30.0578111111,SACAA,2026-04-15,https://caasanwebsitestorage.blob.core.windows.net/aeronautical-information-publication/Enroute%20(15_APR_2026).pdf,447
XARSA,XARSA,SIGNIFICANT_POINT,SOUTH AFRICA / FAJA-FACA FIR,-34.1491955278,23.1559316111,SACAA,2026-04-15,https://caasanwebsitestorage.blob.core.windows.net/aeronautical-information-publication/Enroute%20(15_APR_2026).pdf,447
XARVI,XARVI,SIGNIFICANT_POINT,SOUTH AFRICA / FAJA-FACA FIR,-32.6903222222,26.4433805556,SACAA,2026-04-15,https://caasanwebsitestorage.blob.core.windows.net/aeronautical-information-publication/Enroute%20(15_APR_2026).pdf,447
XATNU,XATNU,SIGNIFICANT_POINT,SOUTH AFRICA / FAJA-FACA FIR,-24.6119416667,30.1921583333,SACAA,2026-04-15,https://caasanwebsitestorage.blob.core.windows.net/aeronautical-information-publication/Enroute%20(15_APR_2026).pdf,447
XAVMU,XAVMU,SIGNIFICANT_POINT,SOUTH AFRICA / FAJA-FACA FIR,-30.5413055556,18.2845000000,SACAA,2026-04-15,https://caasanwebsitestorage.blob.core.windows.net/aeronautical-information-publication/Enroute%20(15_APR_2026).pdf,447
XORER,XORER,SIGNIFICANT_POINT,SOUTH AFRICA / FAJA-FACA FIR,-28.2931166667,28.1770111111,SACAA,2026-04-15,https://caasanwebsitestorage.blob.core.windows.net/aeronautical-information-publication/Enroute%20(15_APR_2026).pdf,447
XOTOP,XOTOP,SIGNIFICANT_POINT,SOUTH AFRICA / FAJA-FACA FIR,-27.9968500000,27.6351472222,SACAA,2026-04-15,https://caasanwebsitestorage.blob.core.windows.net/aeronautical-information-publication/Enroute%20(15_APR_2026).pdf,447
XOXOR,XOXOR,SIGNIFICANT_POINT,SOUTH AFRICA / FAJA-FACA FIR,-32.8356583333,25.9944222222,SACAA,2026-04-15,https://caasanwebsitestorage.blob.core.windows.net/aeronautical-information-publication/Enroute%20(15_APR_2026).pdf,447
XUDAN,XUDAN,SIGNIFICANT_POINT,SOUTH AFRICA / FAJA-FACA FIR,-27.5114472222,16.1685138889,SACAA,2026-04-15,https://caasanwebsitestorage.blob.core.windows.net/aeronautical-information-publication/Enroute%20(15_APR_2026).pdf,447
XUGOL,XUGOL,SIGNIFICANT_POINT,SOUTH AFRICA / FAJA-FACA FIR,-34.1761472222,20.1909972222,SACAA,2026-04-15,https://caasanwebsitestorage.blob.core.windows.net/aeronautical-information-publication/Enroute%20(15_APR_2026).pdf,447
XUGUV,XUGUV,SIGNIFICANT_POINT,SOUTH AFRICA / FAJA-FACA FIR,-27.2703972222,24.0425750000,SACAA,2026-04-15,https://caasanwebsitestorage.blob.core.windows.net/aeronautical-information-publication/Enroute%20(15_APR_2026).pdf,447
